name,kind,lat,lon,province/city
Lầu Ông Hoàng,castle,10.9347126,108.144982,Bình Thuận
Tháp Po Sah Inư,ruins,10.9360535,108.1461223,Bình Thuận
Biggest sleeping Buddha in Vietnam,monument,10.8142909,107.8950202,Bình Thuận
Tượng Phật Bà,monument,10.9237795,108.0954176,Bình Thuận
White Dunes,attraction,11.0678842,108.4273029,Bình Thuận
Princess D'Annam,hotel,10.7084884,107.9798789,Bình Thuận
Peaceful Resort,hotel,10.7173085,108.0013962,Bình Thuận
Sand Dune Hotel,hotel,10.9511155,108.2097969,Bình Thuận
Dragon Fly Guest House,guest_house,10.947951,108.2024711,Bình Thuận
Bien Nguon Guesthouse,guest_house,10.9487969,108.2044989,Bình Thuận
An Can Guest House,guest_house,10.9501893,108.2073037,Bình Thuận
Evergreen Guest House,guest_house,10.9496834,108.2064242,Bình Thuận
Minh Trang Guesthouse,guest_house,10.9488956,108.204736,Bình Thuận
KS Bình Tâm,hotel,10.6026247,107.5559069,Bình Thuận
Chỗ luộc trứng,attraction,10.605241,107.5564065,Bình Thuận
Mũi Kê Gà,cape,10.6998411,107.9931295,Bình Thuận
Canary Beach Resort,hotel,10.9492932,108.2588354,Bình Thuận
Hai Gia Resort,hotel,10.948777,108.2606968,Bình Thuận
Thai hoa muine resort,hotel,10.9492499,108.2584496,Bình Thuận
Hai Au Mui Ne Beach Resort & Spa,hotel,10.9511154,108.2541629,Bình Thuận
Khách sạn TTC Palace,hotel,10.9405359,108.1032726,Bình Thuận
Villa Aria Mui Ne,hotel,10.949418,108.2066643,Bình Thuận
Mia Resort,hotel,10.9443937,108.1958566,Bình Thuận
Ocean Star Resort,hotel,10.9441254,108.1953173,Bình Thuận
Unique Mui Ne Resort,hotel,10.943696,108.1945532,Bình Thuận
Seahorse Resort,hotel,10.9430905,108.1936571,Bình Thuận
Palmira Beach Resort,hotel,10.9422317,108.1925788,Bình Thuận
Sonata Mui Ne Resort,hotel,10.9421843,108.1918224,Bình Thuận
Anantara Resort,hotel,10.9415101,108.1916776,Bình Thuận
Nam ha Hotel,hotel,10.9424719,108.1921845,Bình Thuận
Sea Lion Resort,hotel,10.939856,108.1908572,Bình Thuận
Song Huong Hotel,hotel,10.9553091,108.2343193,Bình Thuận
Phố Biển Hòn Lan Resort and Villas,hotel,10.7155478,107.9504593,Bình Thuận
Mũi Kê Gà,viewpoint,10.6999139,107.9929723,Bình Thuận
Hoang Hai Resort,hotel,10.9547744,108.235907,Bình Thuận
Mui Ne Resort,hotel,10.9548861,108.2348589,Bình Thuận
The Cliff Resort,hotel,10.9373206,108.1787638,Bình Thuận
Tháp nước Phan Thiết,yes,10.9287668,108.1000173,Bình Thuận
Bảo tàng Hồ Chí Minh,museum,10.9286452,108.0953332,Bình Thuận
Bảo tàng Lịch Sử Phan Thiết,museum,10.9299842,108.097897,Bình Thuận
Bảo tàng Lực lượng vũ trang nhân dân,museum,10.9292092,108.100534,Bình Thuận
Tượng đài Chiến Thắng,monument,10.9295791,108.1042775,Bình Thuận
Herbal,hotel,10.9522336,108.2115421,Bình Thuận
Phu Hai Resort,hotel,10.9339325,108.1687693,Bình Thuận
White Sands Resort,hotel,10.9325658,108.1669509,Bình Thuận
Ngọc Song,hotel,10.938718,108.153989,Bình Thuận
Poshanu Resort,hotel,10.936611,108.178174,Bình Thuận
Ocean Vista,hotel,10.938055,108.184372,Bình Thuận
Đài tưởng niệm Liệt sĩ Hàm Thuận Nam,monument,10.8476847,107.8772874,Bình Thuận
Ganh Resort,hotel,10.9286158,108.2914308,Bình Thuận
Malibu Resort,hotel,10.9291741,108.283808,Bình Thuận
Resort Vịnh Mũi Né,hotel,10.9209929,108.2914983,Bình Thuận
The Sailing Bay Resort,hotel,10.9238068,108.2938234,Bình Thuận
Dv Du Lịch Gành Mũi Né,hotel,10.923023,108.2937346,Bình Thuận
Muine Bay Resort,hotel,10.9214818,108.2926606,Bình Thuận
Khu du lịch Malibu,hotel,10.9420835,108.2979164,Bình Thuận
Kitecamp Nomad,hotel,10.9390814,108.295717,Bình Thuận
Pandanus Resort,hotel,10.9448328,108.2980666,Bình Thuận
Khách sạn Đại Dương,hotel,10.9429684,108.2769898,Bình Thuận
Muine de Century Resort & Spa,hotel,10.9520114,108.2526139,Bình Thuận
Mai Vy Guest House,hotel,10.9550029,108.2389615,Bình Thuận
Lucy Resort,hotel,10.9506684,108.2580642,Bình Thuận
Nhà nghỉ Đức Thảo Guest House,hotel,10.9502418,108.2588956,Bình Thuận
Ngoc Lam Guest House,hotel,10.9540707,108.2474533,Bình Thuận
PhuongTay Guest House,hotel,10.9524767,108.2508565,Bình Thuận
Little Muine Cottages Hotel,hotel,10.9518494,108.2512228,Bình Thuận
Sunrise Village Hotel,hotel,10.9525486,108.2471744,Bình Thuận
Little Paris Resort & Spa,hotel,10.9527224,108.2503609,Bình Thuận
Cham Villas Resort,hotel,10.9527066,108.2449911,Bình Thuận
Resort Hoàng Ngọc,hotel,10.9550187,108.2383177,Bình Thuận
Muine Watergate Resort,hotel,10.9546711,108.2372502,Bình Thuận
Mai Am Guest House,hotel,10.9543709,108.2367245,Bình Thuận
Dynasty Beach Mui Ne Resort,hotel,10.9548344,108.2342891,Bình Thuận
Pacific Beach Resort,hotel,10.9549608,108.2335059,Bình Thuận
Rang Garden Resort,hotel,10.9553505,108.2329587,Bình Thuận
Minh Koi,hostel,10.954085,108.217527,Bình Thuận
Vita Garden Mini-Zoo,zoo,10.9543324,108.2587827,Bình Thuận
Diem Lien Guesthouse,hotel,10.9499305,108.2595064,Bình Thuận
Diem Lien Guesthouse,hotel,10.9499785,108.2592827,Bình Thuận
Hoang Nga Guesthouse,hostel,10.9525467,108.2548339,Bình Thuận
Minh Tâm resort,hotel,10.9550962,108.2313128,Bình Thuận
Bao Quynh,hotel,10.9446661,108.1962704,Bình Thuận
Binh Thanh Hotel,hotel,11.3876891,107.5383206,Bình Thuận
Motel,motel,11.4035493,107.505823,Bình Thuận
Pebble Beach Resort,hotel,10.9787852,108.3406135,Bình Thuận
Ban Mai Hotel 66,hotel,10.939359,108.1309447,Bình Thuận
Surf4you Residence,hotel,10.9473197,108.2643459,Bình Thuận
Venus Mui Ne Hotel,hotel,10.9532381,108.2428751,Bình Thuận
Gia minh,guest_house,10.6690284,107.7768517,Bình Thuận
Nhà nghỉ Mai Huy,guest_house,10.7076125,107.8396499,Bình Thuận
Ta Cu Moutain,attraction,10.8345222,107.8703156,Bình Thuận
Trung Tâm Hành Hương Đức Mẹ TàPao,monument,11.1366349,107.7287329,Bình Thuận
Đức Mẹ Tà Pao,artwork,11.1378275,107.730719,Bình Thuận
Fairy Stream,attraction,10.9520082,108.2567008,Bình Thuận
Red dunes,viewpoint,10.9487594,108.2959203,Bình Thuận
Takalau Residence & Resort,hotel,10.9369628,108.1739033,Bình Thuận
Mui Ne hills villa hotel,hotel,10.9480894,108.2002175,Bình Thuận
Sai Gon Pt,guest_house,10.9310973,108.1090135,Bình Thuận
Saigon PT Hotel,hotel,10.9310714,108.1090522,Bình Thuận
Saigon PT Hotel,hotel,10.9310864,108.1090098,Bình Thuận
Viet's Hotel,hotel,10.9493183,108.2001856,Bình Thuận
Mui ne budget hotel,hotel,10.9477942,108.2011306,Bình Thuận
La Marina,hotel,10.952816,108.2472861,Bình Thuận
Fairy Stream Waterfall,attraction,10.9582685,108.2624722,Bình Thuận
la casa del latino,hotel,10.9516212,108.2110959,Bình Thuận
Sea Wind Resort,hotel,10.9532721,108.2149848,Bình Thuận
Longson Mui Ne,hostel,10.973532,108.3397999,Bình Thuận
Hai Yen Family Hotel,hotel,10.9552817,108.2322306,Bình Thuận
chợ lagi,artwork,10.6627275,107.7752656,Bình Thuận
Da Huoai,memorial,11.3894303,107.5460298,Bình Thuận
mũi Yến,cape,11.0267938,108.4139838,Bình Thuận
NHÀ NGHỈ NGỌC YẾN,motel,10.9375773,108.0834367,Bình Thuận
Coco Beach Camp,camp_site,10.6320892,107.7258456,Bình Thuận
Nhà nghỉ NGỌC YẾN,motel,10.9384215,108.0841773,Bình Thuận
bàu trắng,artwork,11.0645675,108.4082889,Bình Thuận
Góc Biển,guest_house,10.9378367,108.2952841,Bình Thuận
Universe,motel,10.9403164,108.2956916,Bình Thuận
Minh Kha,hotel,10.9502702,108.2072213,Bình Thuận
Thao Ha Hotel,hotel,10.9513823,108.2096099,Bình Thuận
Mình chiến,guest_house,10.7065741,107.8418749,Bình Thuận
Nhà Nghỉ Tài lộc,motel,11.3887672,107.5225651,Bình Thuận
Tài Lộc Mottel,hotel,11.3887786,107.522564,Bình Thuận
Lagi resort,hotel,10.6684258,107.7885289,Bình Thuận
Tahn Binh Hotel,hotel,10.6604417,107.7716956,Bình Thuận
Khách sạn HẢI VÂN,hotel,10.9324396,108.1071518,Bình Thuận
Khách sạn Hải Vân,hotel,10.932452,108.1071627,Bình Thuận
Bang Lai Ten Canh,attraction,10.9553565,108.3069033,Bình Thuận
nhà Tuyền,artwork,11.069958,108.1284723,Bình Thuận
Lu Glamping,camp_site,10.7060444,107.9809228,Bình Thuận
Mai Long,hotel,10.6599319,107.7748409,Bình Thuận
Thanh Trúc,hotel,10.9549622,108.2350477,Bình Thuận
Hoang long,hotel,10.93297,108.1110767,Bình Thuận
Doi duong,hotel,10.9241548,108.1139648,Bình Thuận
Cat Tien Guesthouse,motel,10.9514976,108.2558758,Bình Thuận
Viên dong,hotel,10.9265831,108.1139085,Bình Thuận
Binh minh,hotel,10.9248383,108.1147958,Bình Thuận
TTC,hotel,10.9263575,108.1149775,Bình Thuận
Bong lai tien canh,camp_site,10.9554565,108.3071196,Bình Thuận
A504,motel,10.9399827,108.1833068,Bình Thuận
Bãi biển hoang sơ Đồi Dương,camp_site,10.6698529,107.7915813,Bình Thuận
Suối La Ngâu,camp_site,11.2360551,107.7848163,Bình Thuận
Policecontrol,attraction,11.0345751,108.372597,Bình Thuận
The cliff,hotel,10.9376185,108.1794041,Bình Thuận
Bánh Căn 331,information,10.6679087,107.763153,Bình Thuận
Khách sạn Bình Minh,hotel,10.9248109,108.1144885,Bình Thuận
Mường Thanh Holiday,hotel,10.94964,108.257925,Bình Thuận
Cây Bàng,guest_house,10.9367927,108.1876434,Bình Thuận
Núi Hồ Linh,peak,10.510745,107.5032561,Bình Thuận
Núi Mây Tào,peak,10.7715976,107.5052501,Bình Thuận
TDC Phan Thiết,artwork,10.924938,108.053849,Bình Thuận
Nhi Phán,guest_house,10.7070649,107.84067,Bình Thuận
TDC Huỳnh Gia,motel,10.9551131,108.2254282,Bình Thuận
Xóm Chài,motel,10.8754533,108.0572717,Bình Thuận
Golden Coast Resort&Spa,hotel,10.8658156,108.0529113,Bình Thuận
Non nước,hotel,10.8728517,108.0558788,Bình Thuận
Pong Lan,hotel,10.8773518,108.0579672,Bình Thuận
nha 38,museum,11.3082637,107.5072919,Bình Thuận
Nhà boss lợi,alpine_hut,11.3926884,107.5115029,Bình Thuận
Quynh nhu,motel,10.558152,107.5375515,Bình Thuận
Minh Ngọc,hotel,10.9492588,108.2603235,Bình Thuận
Đường ra Kê Gà,artwork,10.7042013,107.9856266,Bình Thuận
Bãi biển Đồi Dương Thị Xã Lagi,artwork,10.7063765,107.8415884,Bình Thuận
Hai Dang Ke Ga,camp_site,10.6957809,107.9922604,Bình Thuận
Quán bánh canh cá lóc,information,11.2568369,107.6410873,Bình Thuận
Nhà Nghỉ Hoàng Lộc,hotel,11.1733929,107.5667257,Bình Thuận
Nhà Cậu 2,artwork,10.6072594,107.5664909,Bình Thuận
Nhà Gì Loan,guest_house,10.9283168,108.1037099,Bình Thuận
hòn rơm,camp_site,10.9545431,108.306581,Bình Thuận
quang cường,motel,10.9334253,108.117674,Bình Thuận
muine hostel,hotel,10.9533132,108.2162001,Bình Thuận
fiore,hotel,10.8438732,108.0416853,Bình Thuận
câu cá tiến hưng,camp_site,10.9275357,108.0701862,Bình Thuận
xuân nở,hostel,10.9552978,108.2151425,Bình Thuận
cường máy,camp_site,10.9465707,108.0436424,Bình Thuận
ngọc lai,motel,10.9479557,108.2026633,Bình Thuận
suối tiên_mũi né,hotel,10.94941,108.2062385,Bình Thuận
nhật thi,motel,10.9538589,108.2184355,Bình Thuận
caty-mui ne,hotel,10.9379236,108.1888,Bình Thuận
rạng đông,motel,10.9485294,108.2630007,Bình Thuận
Thanh Tuyền,motel,10.5986629,107.5612436,Bình Thuận
Resort paradise mũi né,hotel,10.9551887,108.2317034,Bình Thuận
Hải Âu resort,hotel,10.9512824,108.2554324,Bình Thuận
Nhà Ba Vk,wilderness_hut,11.0872435,107.6933739,Bình Thuận
Nhà Dì Vk,wilderness_hut,11.0979425,107.7052081,Bình Thuận
"555/47QL 28, Malam Ham Thuan Bac",apartment,11.0442037,108.1306397,Bình Thuận
Xuân Lu'o'm,apartment,10.9537975,108.2447034,Bình Thuận
Nhà Ba vk,wilderness_hut,11.0866692,107.6929638,Bình Thuận
Hotel Hoà Bình,guest_house,10.9219719,108.1110481,Bình Thuận
khách sạn Hoà Bình,hotel,10.9219485,108.1110303,Bình Thuận
Saint Mary Beach Resort and Camping,camp_site,10.7871933,108.0229374,Bình Thuận
Mui Ne Gardens,guest_house,10.9486671,108.2002565,Bình Thuận
MAY Bungalows,hotel,10.9532428,108.2472174,Bình Thuận
No stress guest house,hotel,10.9489506,108.2010776,Bình Thuận
Khách sạn Khánh An,hotel,10.9302024,108.1086805,Bình Thuận
Kayla's House,hotel,10.9307559,108.1116569,Bình Thuận
Golden peak resort & spa,hotel,10.7904247,108.0236852,Bình Thuận
Cashewnødde plantage,attraction,11.2502679,107.8568065,Bình Thuận
Dragon Fruit Plantage,attraction,11.1907698,108.0740317,Bình Thuận
Sand Painting,gallery,10.931789,108.1259011,Bình Thuận
Trung tâm ẩm thực giải trí Bờ kè Mũi Né,artwork,10.9548931,108.2255072,Bình Thuận
Rang Garden Beach Side,hotel,10.9550696,108.230369,Bình Thuận
Thầy Tô Thanh Vĩ,apartment,10.9480932,108.1089412,Bình Thuận
Thầy Tô Thanh Vĩ,apartment,10.948107,108.1089391,Bình Thuận
Nhà dì Loan,artwork,10.9282308,108.1037374,Bình Thuận
Bến Lội,bay,10.5431607,107.5453591,Bình Thuận
Bãi Suối Ồ - Sông Lô,beach,10.5659429,107.5673747,Bình Thuận
Bia chiến thắng Đèo Bảo Lộc,monument,11.4633252,107.7303494,Bình Thuận
iHome Mui Ne,hotel,10.9530097,108.2434603,Bình Thuận
Sehr schöner strand,attraction,11.0188516,108.3577742,Bình Thuận
Strand,attraction,11.0183038,108.3573104,Bình Thuận
Tháp Pô Sah Inư,attraction,10.9366179,108.1470038,Bình Thuận
Full Moon Village,hotel,10.9908029,108.3433489,Bình Thuận
SUỐI NƯỚC RESORT,hotel,10.9845765,108.342737,Bình Thuận
Hải Đăng Resort 1,hotel,10.995731,108.3455234,Bình Thuận
Khu Du Lịch Dã Ngoại Thiên Trang,hotel,10.9650397,108.3390037,Bình Thuận
Aquaba Resort,hotel,10.9763036,108.3398887,Bình Thuận
Longson Muine Beach Campground Resort,hotel,10.9728601,108.3405297,Bình Thuận
mui ne cape,viewpoint,10.9164207,108.284442,Bình Thuận
Camping with a view,camp_site,11.0253353,108.36386,Bình Thuận
Biển Hồ Hô Tram Camping,camp_site,10.5322922,107.5364244,Bình Thuận
Nhà Đại,information,11.174412,107.7235117,Bình Thuận
Nga Nghi,motel,10.6345562,107.7202902,Bình Thuận
Nhà nghi Quô'c Bình,guest_house,10.6784783,107.7545481,Bình Thuận
Mui ne Beach hotel,hotel,10.9547544,108.2412144,Bình Thuận
Bàu Nhám,artwork,10.5463785,107.5023727,Bình Thuận
Nha Nghi Hoang Gia,guest_house,11.18556,107.5643839,Bình Thuận
Minh Hung Hotel,hotel,10.9538073,108.2174182,Bình Thuận
Mui Né Hills Backpacker Hotels,hostel,10.9492224,108.1991432,Bình Thuận
Lê Văn Lộc,apartment,11.215754,107.6947376,Bình Thuận
PE97,apartment,10.9445253,108.1808224,Bình Thuận
Biển Sealinks,camp_site,10.9371273,108.1821035,Bình Thuận
Sunrise view,viewpoint,11.0040397,108.3495246,Bình Thuận
Tượng đài Việt Quốc Công,monument,10.9274792,108.1167763,Bình Thuận
Công viên Hòa Bình,,10.9294288,108.1152186,Bình Thuận
Tượng Bác Hồ và các cháu,memorial,10.9287494,108.0957223,Bình Thuận
mái vòm,,10.9286029,108.0945639,Bình Thuận
Khu nghỉ dưỡng Hodota,artwork,10.5704501,107.5708373,Bình Thuận
Fisherman's harbor,attraction,10.9344628,108.2825178,Bình Thuận
Miami Hostel,hostel,10.9532157,108.2148452,Bình Thuận
Núi Tà Lộc,peak,10.7589563,107.5362761,Bình Thuận
Reisfelder,viewpoint,11.4415849,108.3629819,Bình Thuận
ku bin,wilderness_hut,10.8411193,107.8020834,Bình Thuận
Pease,hotel,10.9982508,108.3466421,Bình Thuận
Vườn chè Lộc Thành - Bảo Lộc,alpine_hut,11.4374959,107.799241,Bình Thuận
Lang Cat,guest_house,10.9518844,108.2488454,Bình Thuận
IHome backpackers hostel,hostel,10.9533864,108.2416034,Bình Thuận
iHome backpacker resort,hostel,10.9533126,108.2420584,Bình Thuận
Sao Mai Mui Ne Hotel,hotel,10.9553562,108.2152672,Bình Thuận
tree rows,tree,10.922824,108.1124434,Bình Thuận
tree rows,tree,10.923067,108.1128123,Bình Thuận
tree rows,tree,10.9227827,108.1130038,Bình Thuận
tree rows,tree,10.9230808,108.1131112,Bình Thuận
tree rows,tree,10.9234384,108.1133541,Bình Thuận
tree rows,tree,10.9233054,108.1135035,Bình Thuận
tree rows,tree,10.9236631,108.1136623,Bình Thuận
tree rows,tree,10.9238465,108.1138491,Bình Thuận
tree rows,tree,10.9239795,108.1140452,Bình Thuận
tree rows,tree,10.9238511,108.1141386,Bình Thuận
tree rows,tree,10.9240712,108.114615,Bình Thuận
tree rows,tree,10.924273,108.1144422,Bình Thuận
tree rows,tree,10.924328,108.1147644,Bình Thuận
tree rows,tree,10.9244793,108.1151847,Bình Thuận
tree rows,tree,10.9245985,108.1148578,Bình Thuận
tree rows,tree,10.9247269,108.115138,Bình Thuận
tree rows,tree,10.9248186,108.1154415,Bình Thuận
tree rows,tree,10.9250479,108.115619,Bình Thuận
tree rows,tree,10.9252405,108.1159085,Bình Thuận
tree rows,tree,10.9254835,108.1161654,Bình Thuận
tree rows,tree,10.9257357,108.1164456,Bình Thuận
tree rows,tree,10.9250937,108.1153388,Bình Thuận
tree rows,tree,10.9253689,108.1153948,Bình Thuận
tree rows,tree,10.9256486,108.1154836,Bình Thuận
tree rows,tree,10.9254835,108.1156424,Bình Thuận
tree rows,tree,10.9256348,108.1159319,Bình Thuận
tree rows,tree,10.9259054,108.116114,Bình Thuận
tree rows,tree,10.9282069,108.1101128,Bình Thuận
Tượng chiến sĩ cách mạng,memorial,10.928578,108.1098116,Bình Thuận
tree rows,tree,10.937585,108.1111413,Bình Thuận
tree rows,tree,10.9373058,108.111203,Bình Thuận
tree rows,tree,10.9370741,108.1110099,Bình Thuận
tree rows,tree,10.9374876,108.1109938,Bình Thuận
tree rows,tree,10.9377983,108.1110152,Bình Thuận
tree rows,tree,10.9377693,108.1117421,Bình Thuận
tree rows,tree,10.9375955,108.1117287,Bình Thuận
tree rows,tree,10.9371847,108.1117233,Bình Thuận
tree rows,tree,10.9369846,108.1117341,Bình Thuận
tree rows,tree,10.9369767,108.1115222,Bình Thuận
tree rows,tree,10.9372927,108.1115383,Bình Thuận
tree rows,tree,10.9375271,108.111549,Bình Thuận
tree rows,tree,10.9369793,108.1111708,Bình Thuận
Bia tưởng niệm,memorial,10.9348913,108.097474,Bình Thuận
Tuan Bin;Thanh Kieu;thanh kiều,wilderness_hut,10.8409948,107.8012332,Bình Thuận
GA 1,apartment,11.1457139,107.6296554,Bình Thuận
Garden Guesthouse,guest_house,10.9530527,108.2497437,Bình Thuận
Mũi Nhỏ,cape,11.0486002,108.4750204,Bình Thuận
White Sand,attraction,11.0660329,108.4279966,Bình Thuận
Ihome Backpacker Resort,hostel,10.9534243,108.2415644,Bình Thuận
nnBẢY,apartment,10.9340891,108.1216173,Bình Thuận
nnBẢY,apartment,10.9341588,108.121755,Bình Thuận
nnBẢY,apartment,10.9341173,108.1215799,Bình Thuận
Victoria Phan Thiet Beach Resort & Spa,hotel,10.9368018,108.175972,Bình Thuận
Allezboo Beach Resort & Spa,hotel,10.9390758,108.1898068,Bình Thuận
PE 81 Sealink,apartment,10.9451469,108.1820995,Bình Thuận
Núi Tà Dôn,peak,11.0473295,108.1785381,Bình Thuận
Hòn Mốc,peak,11.2439184,108.3348019,Bình Thuận
Núi Ba Hòn,peak,10.8892704,108.0055286,Bình Thuận
Núi Nhọn,peak,10.8461827,107.8866219,Bình Thuận
I Love Mui Ne,attraction,10.9459359,108.268426,Bình Thuận
nhà tài 79,apartment,10.6043626,107.627804,Bình Thuận
Lotus Muine Resort & Spa,hotel,10.9366333,108.172401,Bình Thuận
Aroma Beach Resort & Spa,hotel,10.9365182,108.1716659,Bình Thuận
Sky Garden Hotel,guest_house,10.9551267,108.2143424,Bình Thuận
An Khang,apartment,11.1931127,108.3638379,Bình Thuận
Khánh Hưng,apartment,10.9296992,108.0919484,Bình Thuận
Mỹ Linh,apartment,11.1484471,107.5021492,Bình Thuận
Bảo Ngọc,apartment,11.2466009,107.660579,Bình Thuận
Nguyên Thịnh,apartment,11.2254714,107.6716602,Bình Thuận
86,apartment,11.1071688,107.6765311,Bình Thuận
Hồng Lợi,apartment,10.9676825,108.0069443,Bình Thuận
Anh Tuấn,apartment,11.0650901,108.129712,Bình Thuận
Ngọc Phượng,apartment,11.1327737,107.5014134,Bình Thuận
Diệp Anh,apartment,11.2138228,107.6857873,Bình Thuận
Lam Thuý Oanh,apartment,11.0802439,107.6833534,Bình Thuận
Ánh Sang,apartment,10.8728405,107.929253,Bình Thuận
Mỹ Oanh,apartment,11.0641575,107.6840936,Bình Thuận
Huỳnh Lê,apartment,11.1949235,108.2852895,Bình Thuận
Bảo Lộc Garden,,11.4652479,107.7608048,Bình Thuận
Nghỉ ngơi,motel,10.6853516,107.7506931,Bình Thuận
Thanh Phong,motel,10.9392414,108.1154997,Bình Thuận
Anh Khánh,museum,10.9529978,108.0609468,Bình Thuận
Novadream,camp_site,10.8491269,108.0424732,Bình Thuận
Mui Ne Hills Bliss Hotel,hotel,10.949056,108.1996339,Bình Thuận
Kim Long Hotel,hotel,10.9491732,108.1993582,Bình Thuận
Núi Sa Pung,peak,11.4908224,107.8026609,Bình Thuận
Nang Petaho,peak,11.3727634,107.893943,Bình Thuận
B'Nom Nam Bong,peak,11.375557,107.851989,Bình Thuận
B'Nom Hù,peak,11.3817989,107.8834852,Bình Thuận
Núi Đang Ko Nhan,peak,11.444221,107.8704833,Bình Thuận
Núi M'Neun Sougoune,peak,11.447597,108.0331349,Bình Thuận
Núi Paran,peak,11.3599842,107.969605,Bình Thuận
Núi M'Nom R'Ngall,peak,11.3934507,107.9898414,Bình Thuận
Sunset,viewpoint,10.9362359,108.1851218,Bình Thuận
Núi M'Nom Oun Rouass,peak,11.4373657,108.0192805,Bình Thuận
Núi M'Nom Haloun,peak,11.3830369,108.092091,Bình Thuận
Núi B'Nom Lu Mú,peak,11.4532542,107.660104,Bình Thuận
Núi B'Nom Lu Mu,peak,11.4062073,107.699104,Bình Thuận
Núi B'Nom Đan Lu,peak,11.4108139,107.7256001,Bình Thuận
Núi B'Nom Dam Broo,peak,11.4799966,107.6588327,Bình Thuận
Núi B'Nom Da Klait,peak,11.4828582,107.701115,Bình Thuận
Núi Tà Kóu,peak,10.8150648,107.9000974,Bình Thuận
Song Ngọc Phan Thiết,guest_house,10.9332324,108.113642,Bình Thuận
Lạc House,hotel,10.954203,108.2174041,Bình Thuận
Núi M'Nom Lam Leu,peak,11.4668606,108.170861,Bình Thuận
Núi Nhọn,peak,10.7851895,107.7435663,Bình Thuận
Núi Đất,peak,10.7351741,107.8069818,Bình Thuận
Núi Rễ,peak,11.167314,108.2810359,Bình Thuận
Núi Cơ Dung,peak,11.1394241,107.7811575,Bình Thuận
Núi Ông,peak,11.0777819,107.7902895,Bình Thuận
Núi Lầm,peak,10.9740449,107.8327793,Bình Thuận
Núi Đen,peak,10.9384477,107.8488564,Bình Thuận
Núi Lồ Ồ,peak,10.9132785,107.7921975,Bình Thuận
Núi Mơ Hai,peak,11.3345475,107.8196613,Bình Thuận
Núi Bể,peak,10.7540104,107.6255518,Bình Thuận
Núi La,peak,11.3159715,108.2752311,Bình Thuận
Hòn Rơm,peak,10.9549065,108.3352589,Bình Thuận
Núi Đá Chồng,peak,11.0672757,107.6707685,Bình Thuận
Núi B'Nom Pang Hya,peak,11.3111006,107.7377272,Bình Thuận
Núi Dang S'Ruin,peak,11.2765651,107.9065025,Bình Thuận
Núi Lấp,peak,10.9933541,107.663293,Bình Thuận
Núi Kiết,peak,10.9826765,107.6316661,Bình Thuận
Núi Giai,peak,10.9284915,107.7120232,Bình Thuận
Núi Bong,peak,10.9460427,107.7520096,Bình Thuận
Núi Ba Lang,peak,10.971773,107.7503433,Bình Thuận
Núi Mù Pang Hong,peak,11.3351781,107.7108453,Bình Thuận
Núi Đang Kê,peak,11.1812632,107.7881888,Bình Thuận
Núi Mốc,peak,11.0233953,107.7862672,Bình Thuận
Núi Gian,peak,11.0973372,107.6978653,Bình Thuận
Núi Gia,peak,11.0089034,107.8210216,Bình Thuận
Núi Rom Pang Ko,peak,11.2740488,107.6626584,Bình Thuận
Núi Long,peak,11.131804,107.7414699,Bình Thuận
Núi Bắc,peak,11.1483708,107.7356484,Bình Thuận
Núi Sơ Rơ Lung,peak,11.3505937,107.788853,Bình Thuận
Núi Bơ Phan Tre La,peak,11.3402285,107.7792587,Bình Thuận
Núi Cà Toong,peak,11.12007,107.6615948,Bình Thuận
Núi Lùm,peak,10.9982006,107.8693163,Bình Thuận
Núi Ông Trao,peak,11.1272129,107.9486775,Bình Thuận
Hòn Hồng,peak,11.0400456,108.4023571,Bình Thuận
Núi Bàu Thiêu,peak,11.0581888,108.3098745,Bình Thuận
Núi Xã Thô,peak,11.1083266,108.1565595,Bình Thuận
Vịnh Phan Thiết,bay,10.9103577,108.0977762,Bình Thuận
Núi Cố,peak,10.9353402,108.1611889,Bình Thuận
Núi N'Gung Ré,peak,11.4416719,108.0724993,Bình Thuận
Núi M'Nom Pan Tar,peak,11.46301,108.0874464,Bình Thuận
Núi M'Nom Lai Dui,peak,11.4274488,108.1161976,Bình Thuận
Tổ quốc Ghi công,monument,11.185838,107.5590115,Bình Thuận
Suối nước nóng Bình Châu,hot_spring,10.6050088,107.5564353,Bình Thuận
Núi Dinh,peak,11.154219,107.5358963,Bình Thuận
Núi Cô Nhí,peak,10.9660927,107.9755211,Bình Thuận
Núi Rao,peak,10.870628,107.5812149,Bình Thuận
Núi Là A,peak,10.8848622,107.6220918,Bình Thuận
Núi Giăng Co,peak,10.8449867,107.707665,Bình Thuận
Núi Lồ Ô,peak,10.8478476,107.6570892,Bình Thuận
Núi Mương,peak,10.9014556,107.8106832,Bình Thuận
Núi Bà Đặng,peak,10.7637654,107.9709613,Bình Thuận
Núi Ếch,peak,11.1790544,108.2601464,Bình Thuận
Blue Ocean Resort,hotel,10.9511916,108.2105628,Bình Thuận
Chon's Dock Homestay & House Lease,guest_house,10.9108358,108.0810305,Bình Thuận
Centara Mirage Resort Mui Ne,hotel,10.9468964,108.2686757,Bình Thuận
Nhà nghỉ Vân Hùng,motel,10.9602929,108.3278185,Bình Thuận
Đồi Cát Bay,information,10.948883,108.2978477,Bình Thuận
Làng Chài Mũi Né,information,10.9409844,108.2793613,Bình Thuận
Bãi Đá Ông Địa,information,10.9368487,108.1842521,Bình Thuận
Tháp Pô Sah Inư,information,10.9366961,108.1471089,Bình Thuận
lễ hội Katê tại tháp Po Sah Inư,information,10.9359748,108.1462594,Bình Thuận
Tháp nước Phan Thiết,information,10.9287832,108.1001578,Bình Thuận
Đại Dương La Gi Homestay & Coffee,guest_house,10.640142,107.720148,Bình Thuận
Asteria Mui Ne Resort,hotel,10.9506981,108.3026883,Bình Thuận
Under construction 2025,information,11.4188962,108.3493997,Bình Thuận
Gem’s House Homestay&Villa,guest_house,10.9558679,108.2271553,Bình Thuận
Cô Tư's Homestay - Mũi Né,guest_house,10.9668907,108.2481813,Bình Thuận
Minera Hot Springs Bình Châu,attraction,10.6030998,107.5584397,Bình Thuận
Cocosand Hotel,hotel,10.9517471,108.2113641,Bình Thuận
Xin Cháo Hotel,hotel,10.9526352,108.2129994,Bình Thuận
Long Beach Pearl,hotel,10.9522706,108.2140303,Bình Thuận
Happy Stay Resort,hotel,10.5354666,107.5369592,Bình Thuận
Hong Di,hotel,10.9503652,108.2094071,Bình Thuận
Bamboo Village,hotel,10.9450649,108.1988688,Bình Thuận
Sunrise Resort,hotel,10.950687,108.2096478,Bình Thuận
Paradise Beach Club,hotel,10.9487551,108.2061828,Bình Thuận
Ngoc Dung Guest House,hotel,10.9455338,108.1982861,Bình Thuận
Rach Dua Resort,hotel,10.9501166,108.2087392,Bình Thuận
Coco Beach,hotel,10.9484285,108.2053945,Bình Thuận
Bon Bien,hotel,10.9444378,108.1976392,Bình Thuận
Saigon Mui Ne Resort,hotel,10.947781,108.2041498,Bình Thuận
Xian Uyen,hotel,10.9509359,108.2104023,Bình Thuận
Ananda,hotel,10.9464867,108.2014757,Bình Thuận
Hawaii Beach Resort,hotel,10.9453781,108.1995132,Bình Thuận
Sunshine Beach,hotel,10.9513476,108.2115026,Bình Thuận
Sunshine Beach,hotel,10.9493251,108.2064697,Bình Thuận
Swiss Village,hotel,10.9457762,108.2000612,Bình Thuận
Cham Villas,hotel,10.9447726,108.1980943,Bình Thuận
Sunsea Resort,hotel,10.9465983,108.2016757,Bình Thuận
Blue Ocean,hotel,10.947039,108.2025775,Bình Thuận
Indochine Dreams,hotel,10.9507837,108.2099127,Bình Thuận
Hiep Han Resort,hotel,10.9511143,108.2110577,Bình Thuận
Vinh Siong,hotel,10.9461779,108.2009305,Bình Thuận
Ngoc Bich Bungalow,hotel,10.9466994,108.2018913,Bình Thuận
Ocean Front Resort,hotel,10.9527998,108.2152762,Bình Thuận
Pelican guesthouse,hotel,10.9536095,108.2178574,Bình Thuận
Shades Apartments,hotel,10.9528992,108.2155487,Bình Thuận
Riva Mui Ne Resort,hotel,10.9519508,108.2130364,Bình Thuận
Tien Dat,hotel,10.9527354,108.2132257,Bình Thuận
Lotus Village Resort,hotel,10.953061,108.2160028,Bình Thuận
Paradise Huts,hotel,10.9516643,108.2124741,Bình Thuận
Minh Hung minihotel,hotel,10.9538888,108.2173465,Bình Thuận
Nha Nghi Guesthouse,hotel,10.9531537,108.2163648,Bình Thuận
Full Moon Beach Resort,hotel,10.9515299,108.2120505,Bình Thuận
Tien Dat,hotel,10.9520852,108.2134563,Bình Thuận
Lu Huang Guesthouse,hotel,10.9532109,108.2165533,Bình Thuận
Calif Mui Ne,hotel,10.9527033,108.2149883,Bình Thuận
Novela Muine,hotel,10.9524169,108.2142831,Bình Thuận
Kim Ngan,hotel,10.9533891,108.21718,Bình Thuận
Cay Pre Resort,hotel,10.9542484,108.219768,Bình Thuận
Ocean Valley Hotel,hotel,10.9548461,108.2221583,Bình Thuận
Hot spring water and mud b,attraction,10.6035288,107.5580566,Bình Thuận
Khu Biệt thự Mũi Né,hotel,10.9428287,108.1738544,Bình Thuận
Đồi cát bay Mũi Né,attraction,10.9476754,108.2933338,Bình Thuận
Ocean Dunes Resort,hotel,10.9284148,108.1197495,Bình Thuận
Khách sạn Park Diamond,hotel,10.9257866,108.1143524,Bình Thuận
Trường Dục Thanh,museum,10.9282527,108.0961251,Bình Thuận
Herbal Hotel,hotel,10.9521559,108.2115512,Bình Thuận
Khách sạn Cà Ty,hotel,10.9285251,108.0974743,Bình Thuận
Melon Resort,hotel,10.938332,108.1752704,Bình Thuận
Hoàng Long,hotel,10.9328361,108.1112873,Bình Thuận
Phú Gia,hotel,10.9320014,108.1109262,Bình Thuận
Đồi Dương,hotel,10.9246388,108.1136346,Bình Thuận
Bình Minh,hotel,10.9251166,108.1141632,Bình Thuận
The Cliff Resort,hotel,10.9369644,108.179269,Bình Thuận
Poshanu Resort,hotel,10.9369593,108.1781952,Bình Thuận
The Beach Resort,hotel,10.9427781,108.1946294,Bình Thuận
Thai hoa muine resort,hotel,10.9494454,108.2584854,Bình Thuận
Bao Quynh,hotel,10.9440045,108.1964579,Bình Thuận
Khu du lịch Ma Đa Guôi,attraction,11.4233075,107.578007,Bình Thuận
Blu Bay Muine Hotel,hotel,10.9920451,108.3439788,Bình Thuận
Hung Phat Hotel 2,hotel,10.9979786,108.3469683,Bình Thuận
Sand Dunes Beach Resort,hotel,10.9499489,108.3018769,Bình Thuận
Orchid Beach Resort,hotel,10.8768723,108.0584889,Bình Thuận
Champa Resort & Spa,hotel,10.8673583,108.0538342,Bình Thuận
Green Organic Villas,hotel,10.7959308,108.0260229,Bình Thuận
Doisu Resort,hotel,10.7646436,108.019305,Bình Thuận
Saigon Suoinhum Resort,hotel,10.7697329,108.0204035,Bình Thuận
Blue Sailing Resort,hotel,10.7419546,108.0148534,Bình Thuận
Bel Sea Resort,hotel,10.7495784,108.015847,Bình Thuận
Feng Shui Resort,hotel,10.7544683,108.0168858,Bình Thuận
Rock Water Bay Beach Resort & Spa,hotel,10.7354895,108.0118514,Bình Thuận
Bau Mai Resort,hotel,10.7285754,108.0068789,Bình Thuận
Peaceful Resort,hotel,10.717209,108.0012436,Bình Thuận
Romana Resort & Spa,hotel,10.932134,108.1624929,Bình Thuận
AMARYLLIS Resort & Spa,hotel,10.9350045,108.1701359,Bình Thuận
S51,guest_house,10.939087,108.179705,Bình Thuận
S59,guest_house,10.9391156,108.1798715,Bình Thuận
S52,guest_house,10.939151,108.1800444,Bình Thuận
S53,guest_house,10.9391846,108.1802123,Bình Thuận
S54,guest_house,10.9392402,108.180369,Bình Thuận
S55,guest_house,10.9392899,108.1805452,Bình Thuận
S56,guest_house,10.9393421,108.1806834,Bình Thuận
S57,guest_house,10.9394074,108.1808635,Bình Thuận
S58,guest_house,10.939464,108.1810071,Bình Thuận
S39,guest_house,10.9398851,108.1810162,Bình Thuận
S38,guest_house,10.9398256,108.1808554,Bình Thuận
S37,guest_house,10.9397624,108.1806863,Bình Thuận
S61,guest_house,10.9396521,108.1803865,Bình Thuận
S60,guest_house,10.9396054,108.1802238,Bình Thuận
S43,guest_house,10.9395662,108.1800576,Bình Thuận
S42,guest_house,10.9395312,108.1798929,Bình Thuận
S41,guest_house,10.9394992,108.1797253,Bình Thuận
S13,guest_house,10.9398832,108.1801635,Bình Thuận
S14,guest_house,10.9398444,108.1799991,Bình Thuận
S15,guest_house,10.9398009,108.1798491,Bình Thuận
S62,guest_house,10.9397691,108.1796786,Bình Thuận
S44,guest_house,10.93998,108.1805291,Bình Thuận
S47,guest_house,10.9400815,108.1806842,Bình Thuận
S48,guest_house,10.940188,108.180801,Bình Thuận
S49,guest_house,10.9402999,108.1809533,Bình Thuận
S50,guest_house,10.9403752,108.1810933,Bình Thuận
S45,guest_house,10.9404196,108.1803058,Bình Thuận
S46,guest_house,10.9405228,108.1804489,Bình Thuận
S34,guest_house,10.9406314,108.1805825,Bình Thuận
S35,guest_house,10.9407292,108.1807368,Bình Thuận
S36,guest_house,10.9408236,108.1808911,Bình Thuận
S40,guest_house,10.9408803,108.1810408,Bình Thuận
S12,guest_house,10.9401736,108.1797958,Bình Thuận
S11,guest_house,10.9401605,108.1799993,Bình Thuận
S10,guest_house,10.9403454,108.1799562,Bình Thuận
S9,guest_house,10.9405014,108.1799054,Bình Thuận
S8,guest_house,10.9406981,108.1798498,Bình Thuận
S7,guest_house,10.9408607,108.1798236,Bình Thuận
S6,guest_house,10.9410543,108.1797466,Bình Thuận
S5,guest_house,10.9412011,108.1796888,Bình Thuận
S26,guest_house,10.9409231,108.1801684,Bình Thuận
S27,guest_house,10.9410364,108.1802913,Bình Thuận
S28,guest_house,10.9411292,108.1804203,Bình Thuận
S29,guest_house,10.9412346,108.180565,Bình Thuận
S30,guest_house,10.9413287,108.180704,Bình Thuận
S31,guest_house,10.9413993,108.1808738,Bình Thuận
S33,guest_house,10.9414486,108.1810401,Bình Thuận
S25,guest_house,10.9420591,108.1810119,Bình Thuận
S79,guest_house,10.9418951,108.180866,Bình Thuận
S24,guest_house,10.9418254,108.1807263,Bình Thuận
S22,guest_house,10.9417541,108.1805514,Bình Thuận
S21,guest_house,10.9416724,108.1804143,Bình Thuận
S20,guest_house,10.9415595,108.1802538,Bình Thuận
S19,guest_house,10.9414625,108.180134,Bình Thuận
S18,guest_house,10.941355,108.1799942,Bình Thuận
S4,guest_house,10.9413877,108.1795805,Bình Thuận
S3,guest_house,10.9415553,108.1794646,Bình Thuận
S2,guest_house,10.9417326,108.1793512,Bình Thuận
S1,guest_house,10.9418914,108.1792791,Bình Thuận
S32,guest_house,10.9417283,108.1798375,Bình Thuận
S23,guest_house,10.9418854,108.1797306,Bình Thuận
S16,guest_house,10.9419415,108.1799876,Bình Thuận
S17,guest_house,10.9419904,108.1801772,Bình Thuận
PE26,guest_house,10.9439028,108.1819477,Bình Thuận
PE27,guest_house,10.9440267,108.1820487,Bình Thuận
PE28,guest_house,10.9441608,108.1821417,Bình Thuận
PE29,guest_house,10.9442932,108.1822384,Bình Thuận
PE30,guest_house,10.9444231,108.1823369,Bình Thuận
PE31,guest_house,10.9445635,108.182425,Bình Thuận
PE32,guest_house,10.9446814,108.1825272,Bình Thuận
PE33,guest_house,10.944802,108.1826601,Bình Thuận
PE34,guest_house,10.9449027,108.1828054,Bình Thuận
PE35,guest_house,10.9449804,108.1829767,Bình Thuận
PE36,guest_house,10.945026,108.183152,Bình Thuận
PE37,guest_house,10.9450332,108.1833271,Bình Thuận
PE38,guest_house,10.9450284,108.183497,Bình Thuận
PE39,guest_house,10.9450393,108.1836595,Bình Thuận
PE40,guest_house,10.9450356,108.1838243,Bình Thuận
PE41,guest_house,10.9450486,108.1840022,Bình Thuận
PE42,guest_house,10.9450479,108.1841629,Bình Thuận
PE82,guest_house,10.9450496,108.184347,Bình Thuận
PE51,guest_house,10.9453496,108.1846943,Bình Thuận
PE43,guest_house,10.9454898,108.1847482,Bình Thuận
PE117,guest_house,10.9456708,108.1847863,Bình Thuận
PE46,guest_house,10.9458311,108.184835,Bình Thuận
PE45,guest_house,10.945997,108.1848737,Bình Thuận
PE48,guest_house,10.9461711,108.1849133,Bình Thuận
PE47,guest_house,10.9463388,108.1849866,Bình Thuận
PE49,guest_house,10.9465006,108.1850866,Bình Thuận
PE50,guest_house,10.94661,108.1852395,Bình Thuận
PE52,guest_house,10.9466878,108.1853964,Bình Thuận
PE53,guest_house,10.9467793,108.1855472,Bình Thuận
PE54,guest_house,10.9468507,108.1856884,Bình Thuận
PE55,guest_house,10.9469279,108.1858337,Bình Thuận
PC56,guest_house,10.9470065,108.1859862,Bình Thuận
PC57,guest_house,10.9470847,108.186152,Bình Thuận
PC58,guest_house,10.9471287,108.1863149,Bình Thuận
PC59,guest_house,10.9471694,108.1864704,Bình Thuận
PC60,guest_house,10.9472016,108.186636,Bình Thuận
PC61,guest_house,10.9472521,108.1867951,Bình Thuận
PC62,guest_house,10.9472872,108.1869566,Bình Thuận
PC63,guest_house,10.947314,108.1871295,Bình Thuận
PC64,guest_house,10.9473226,108.1873047,Bình Thuận
PC83,guest_house,10.9473381,108.1874763,Bình Thuận
PC84,guest_house,10.9473393,108.1876471,Bình Thuận
PC85,guest_house,10.947347,108.1878263,Bình Thuận
PC86,guest_house,10.9473636,108.1879821,Bình Thuận
PC108,guest_house,10.9473777,108.1881478,Bình Thuận
PC65,guest_house,10.9474126,108.1883153,Bình Thuận
PC66,guest_house,10.9474261,108.1884892,Bình Thuận
PC67,guest_house,10.9474505,108.1886502,Bình Thuận
PC68,guest_house,10.947466,108.1888127,Bình Thuận
R28,guest_house,10.9466203,108.1892717,Bình Thuận
R57/R58,guest_house,10.9465684,108.1891144,Bình Thuận
R27,guest_house,10.946514,108.1889466,Bình Thuận
R26,guest_house,10.9464625,108.1887809,Bình Thuận
R25,guest_house,10.9464102,108.1886185,Bình Thuận
R24,guest_house,10.9463655,108.1884535,Bình Thuận
R23,guest_house,10.9463031,108.1882849,Bình Thuận
R22,guest_house,10.9462439,108.1881301,Bình Thuận
R21,guest_house,10.9461986,108.1879683,Bình Thuận
R20,guest_house,10.946148,108.1878034,Bình Thuận
R19,guest_house,10.9460927,108.1876397,Bình Thuận
R29,guest_house,10.946014,108.1893834,Bình Thuận
R59,guest_house,10.945958,108.1892234,Bình Thuận
R30,guest_house,10.9459132,108.1890692,Bình Thuận
R31,guest_house,10.9458541,108.1888996,Bình Thuận
R32,guest_house,10.9458023,108.1887342,Bình Thuận
R34,guest_house,10.9457465,108.1885793,Bình Thuận
R35,guest_house,10.9456957,108.1884193,Bình Thuận
R36,guest_house,10.945647,108.1882522,Bình Thuận
R37,guest_house,10.9455899,108.1880955,Bình Thuận
R38,guest_house,10.945538,108.187931,Bình Thuận
R39,guest_house,10.9454801,108.1877688,Bình Thuận
R40,guest_house,10.9454082,108.1876009,Bình Thuận
R41,guest_house,10.9453136,108.1874622,Bình Thuận
R42,guest_house,10.9452122,108.1873327,Bình Thuận
R43,guest_house,10.9451167,108.1871912,Bình Thuận
R44,guest_house,10.9450107,108.1870593,Bình Thuận
R45,guest_house,10.9449148,108.186924,Bình Thuận
R46,guest_house,10.9448172,108.1867907,Bình Thuận
R47,guest_house,10.9447101,108.1866548,Bình Thuận
R48,guest_house,10.9445954,108.1865344,Bình Thuận
R49,guest_house,10.9444775,108.1864005,Bình Thuận
R50,guest_house,10.9443517,108.1862912,Bình Thuận
R51,guest_house,10.9442245,108.1861939,Bình Thuận
R52,guest_house,10.9440959,108.1860817,Bình Thuận
R53,guest_house,10.9439592,108.1859744,Bình Thuận
R54,guest_house,10.9438266,108.1858636,Bình Thuận
R55,guest_house,10.9437166,108.1857581,Bình Thuận
R56,guest_house,10.943588,108.185642,Bình Thuận
R1,guest_house,10.9441284,108.185308,Bình Thuận
R2,guest_house,10.9442647,108.18542,Bình Thuận
R3,guest_house,10.94439,108.1855318,Bình Thuận
R4,guest_house,10.9445186,108.1856259,Bình Thuận
R5,guest_house,10.9446613,108.1857459,Bình Thuận
R6,guest_house,10.9447923,108.1858443,Bình Thuận
R7,guest_house,10.9449292,108.1859551,Bình Thuận
R8,guest_house,10.9450599,108.1860929,Bình Thuận
R9,guest_house,10.9451593,108.1862246,Bình Thuận
R10,guest_house,10.9452663,108.1863507,Bình Thuận
R11,guest_house,10.9453724,108.1864888,Bình Thuận
R12,guest_house,10.9454754,108.1866273,Bình Thuận
R13,guest_house,10.9455775,108.1867596,Bình Thuận
R14,guest_house,10.9456707,108.1868923,Bình Thuận
R15,guest_house,10.9457755,108.187032,Bình Thuận
R16,guest_house,10.9458736,108.1871609,Bình Thuận
R17,guest_house,10.9459789,108.1873121,Bình Thuận
R18,guest_house,10.9460416,108.1874888,Bình Thuận
PC54,guest_house,10.9485346,108.1872561,Bình Thuận
PC49,guest_house,10.9485353,108.1874199,Bình Thuận
PC50,guest_house,10.94853,108.1875965,Bình Thuận
PC53,guest_house,10.94853,108.187765,Bình Thuận
PC55,guest_house,10.9485439,108.1879344,Bình Thuận
PC21,guest_house,10.9485453,108.1881015,Bình Thuận
PC20,guest_house,10.9485226,108.187085,Bình Thuận
PC19,guest_house,10.9485088,108.1869098,Bình Thuận
PC18,guest_house,10.9484745,108.186728,Bình Thuận
PC17,guest_house,10.948423,108.1865583,Bình Thuận
PC16,guest_house,10.9483883,108.1864097,Bình Thuận
PC15,guest_house,10.9483438,108.1862482,Bình Thuận
PC14,guest_house,10.9482973,108.1860765,Bình Thuận
PC13,guest_house,10.948258,108.1859168,Bình Thuận
PC12,guest_house,10.9482181,108.1857452,Bình Thuận
PC11,guest_house,10.9481609,108.1855752,Bình Thuận
PC10,guest_house,10.9481098,108.1854073,Bình Thuận
PC9,guest_house,10.9480411,108.1852658,Bình Thuận
PC8,guest_house,10.9479709,108.1851061,Bình Thuận
PC7,guest_house,10.9479099,108.1849503,Bình Thuận
PC6,guest_house,10.9478473,108.1847868,Bình Thuận
PC5,guest_house,10.947781,108.1846306,Bình Thuận
PC4,guest_house,10.9477127,108.1844837,Bình Thuận
PC3,guest_house,10.9476512,108.1843298,Bình Thuận
PC2,guest_house,10.9475937,108.1841747,Bình Thuận
PC1,guest_house,10.9475243,108.1840148,Bình Thuận
PC47,guest_house,10.9470241,108.1846292,Bình Thuận
PC46,guest_house,10.9470821,108.1847945,Bình Thuận
PC45,guest_house,10.947144,108.1849401,Bình Thuận
PC44,guest_house,10.9472047,108.1850929,Bình Thuận
PC43,guest_house,10.9472697,108.1852531,Bình Thuận
PC42,guest_house,10.9473437,108.185398,Bình Thuận
PC41,guest_house,10.9474012,108.1855446,Bình Thuận
PC40,guest_house,10.9474701,108.1857,Bình Thuận
PC39,guest_house,10.9475381,108.185848,Bình Thuận
PC38,guest_house,10.9475963,108.1860094,Bình Thuận
PC37,guest_house,10.9476509,108.1861769,Bình Thuận
PC36,guest_house,10.9476946,108.1863415,Bình Thuận
PC35,guest_house,10.9477323,108.1864983,Bình Thuận
PC34,guest_house,10.9477694,108.1866644,Bình Thuận
PC33,guest_house,10.9478132,108.1868188,Bình Thuận
PC32,guest_house,10.9478396,108.1869889,Bình Thuận
PC31,guest_house,10.9478681,108.1871665,Bình Thuận
PC30,guest_house,10.9478661,108.1873338,Bình Thuận
PC29,guest_house,10.9478676,108.1874955,Bình Thuận
PC28,guest_house,10.9478737,108.1876608,Bình Thuận
PC27,guest_house,10.9478953,108.1878373,Bình Thuận
PC24,guest_house,10.9479218,108.1879971,Bình Thuận
PC23,guest_house,10.947944,108.1881656,Bình Thuận
PC51,guest_house,10.9479685,108.188326,Bình Thuận
PC52,guest_house,10.9479937,108.1884971,Bình Thuận
PC22,guest_house,10.9480231,108.1886486,Bình Thuận
PE25,guest_house,10.9463004,108.1845141,Bình Thuận
PE24,guest_house,10.9461909,108.184379,Bình Thuận
PE23,guest_house,10.9460725,108.1842396,Bình Thuận
PE22,guest_house,10.9459605,108.1841131,Bình Thuận
PE70,guest_house,10.9458518,108.1839722,Bình Thuận
PE21,guest_house,10.9457269,108.1838303,Bình Thuận
PE20,guest_house,10.9456017,108.1837,Bình Thuận
PE19,guest_house,10.9454866,108.1835704,Bình Thuận
PE80,guest_house,10.9466047,108.1839925,Bình Thuận
PE110,guest_house,10.9464938,108.183858,Bình Thuận
PE78,guest_house,10.9463794,108.1837399,Bình Thuận
PE18,guest_house,10.9468832,108.1837124,Bình Thuận
PE14,guest_house,10.9467698,108.1835919,Bình Thuận
PE13,guest_house,10.9466618,108.1834599,Bình Thuận
PE12,guest_house,10.9465506,108.1833321,Bình Thuận
PE11,guest_house,10.9464349,108.1832116,Bình Thuận
PE77,guest_house,10.9462673,108.1836145,Bình Thuận
PE76,guest_house,10.9461587,108.1834787,Bình Thuận
PE75,guest_house,10.9460415,108.183363,Bình Thuận
PE10,guest_house,10.9463237,108.183078,Bình Thuận
PE74,guest_house,10.945935,108.1832355,Bình Thuận
PE73,guest_house,10.9458123,108.1831124,Bình Thuận
PE109,guest_house,10.9457036,108.1829762,Bình Thuận
PE69,guest_house,10.9462045,108.1829598,Bình Thuận
PE9,guest_house,10.9460926,108.1828337,Bình Thuận
PE8,guest_house,10.9459794,108.1826965,Bình Thuận
PE7,guest_house,10.9458787,108.1825395,Bình Thuận
PE72,guest_house,10.9456029,108.1828456,Bình Thuận
PE71,guest_house,10.9455117,108.1826925,Bình Thuận
PE17,guest_house,10.945437,108.1825433,Bình Thuận
PE16,guest_house,10.9453609,108.1823874,Bình Thuận
PE15,guest_house,10.9452868,108.1822394,Bình Thuận
PE81,guest_house,10.9452002,108.1820778,Bình Thuận
PE6,guest_house,10.9458115,108.1823858,Bình Thuận
PE5,guest_house,10.9457284,108.1822233,Bình Thuận
PE4,guest_house,10.9456514,108.1820819,Bình Thuận
PE3,guest_house,10.9455826,108.1819206,Bình Thuận
PE2,guest_house,10.9455111,108.181775,Bình Thuận
PE1,guest_house,10.9454469,108.1816147,Bình Thuận
PE95,guest_house,10.9453959,108.1813236,Bình Thuận
PE94,guest_house,10.9453627,108.1811583,Bình Thuận
PE103,guest_house,10.945101,108.1817239,Bình Thuận
PE102,guest_house,10.9450421,108.1815779,Bình Thuận
PE101,guest_house,10.9449824,108.1814055,Bình Thuận
PE100,guest_house,10.9448894,108.1812605,Bình Thuận
PE93,guest_house,10.9452989,108.1809875,Bình Thuận
PE92,guest_house,10.9452296,108.1808208,Bình Thuận
PE91,guest_house,10.9451231,108.1806612,Bình Thuận
PE90,guest_house,10.9450075,108.1805374,Bình Thuận
PE89,guest_house,10.9448615,108.1804386,Bình Thuận
PE88,guest_house,10.9447087,108.1803342,Bình Thuận
PE111,guest_house,10.9445526,108.1802558,Bình Thuận
PE96,guest_house,10.9444261,108.1807071,Bình Thuận
PE97,guest_house,10.944539,108.1808193,Bình Thuận
PE98,guest_house,10.9446892,108.180964,Bình Thuận
PE99,guest_house,10.9447948,108.1811081,Bình Thuận
PE104,guest_house,10.9441396,108.1812733,Bình Thuận
PE105,guest_house,10.9442425,108.1814053,Bình Thuận
PE106,guest_house,10.944358,108.18153,Bình Thuận
PE107,guest_house,10.9444727,108.181658,Bình Thuận
PE112,guest_house,10.9445912,108.1817736,Bình Thuận
Sunny beach,hotel,10.9500168,108.2082731,Bình Thuận
Villa Area,hotel,10.9490924,108.2068029,Bình Thuận
Dessole Beach Resort - Mui Ne,hotel,10.9394488,108.1913249,Bình Thuận
Ocean Star Resort,hotel,10.9438351,108.1955788,Bình Thuận
1001 Hotel,hotel,10.9450376,108.1957376,Bình Thuận
Sunny Beach Resort,hotel,10.9495707,108.207769,Bình Thuận
Vạn Thủy Tú,attraction,10.9231906,108.1000546,Bình Thuận
Bảo tàng lực lượng vũ trang,museum,10.9293535,108.1007293,Bình Thuận
Bảo Tàng Hồ Chí Minh,museum,10.9286387,108.0953303,Bình Thuận
Blue Shell Resort,hotel,10.9402504,108.2978636,Bình Thuận
Ca Ty Mui Ne Resort,hotel,10.9377802,108.1894245,Bình Thuận
Terracotta,hotel,10.9442001,108.1969161,Bình Thuận
