name,kind,lat,lon,province/city
Đèo Hải Vân,attraction,16.1874495,108.1307217,Đà Nẵng
Thanh Vân II,hotel,15.887589,108.3279837,Đà Nẵng
Sunflower Hotel,hotel,15.8804863,108.3427783,Đà Nẵng
Mũi Đà Nẵng,cape,16.117875,108.3386414,Đà Nẵng
Minh Quang,hotel,15.8824297,108.3251204,Đà Nẵng
Hotel My Chau,hotel,15.8816219,108.3276885,Đà Nẵng
Ban Co Peak,viewpoint,16.1189286,108.2720036,Đà Nẵng
Bãi Nam,viewpoint,16.1027134,108.2951213,Đà Nẵng
Núi Sơn Trà,peak,16.1195909,108.2866498,Đà Nẵng
Son Tra Resort & Spa,hotel,16.1060167,108.294902,Đà Nẵng
Thuỷ Sơn,attraction,16.0043044,108.263527,Đà Nẵng
Động Âm Phủ,cave_entrance,16.0031975,108.2639113,Đà Nẵng
Van Thong Cave,cave_entrance,16.0038323,108.2635254,Đà Nẵng
Huyen Khong Cave,cave_entrance,16.0041859,108.2623368,Đà Nẵng
Nhi Nhi Hotel,hotel,15.8794633,108.3208587,Đà Nẵng
Emerald Hoi An Riverside Resort,hotel,15.8744836,108.3235617,Đà Nẵng
Nhà cổ Đức An,museum,15.8770533,108.3273582,Đà Nẵng
Khach San Phu Thinh,hotel,15.877233,108.327529,Đà Nẵng
Nhà cổ Quân Thắng,museum,15.8770968,108.3292876,Đà Nẵng
Boa tang gom su mau dich,museum,15.8772671,108.329548,Đà Nẵng
Vinh Hung,hotel,15.8770406,108.3269156,Đà Nẵng
An Hoi,hotel,15.8761599,108.3245591,Đà Nẵng
Long Life Riverside,hotel,15.8761954,108.3249199,Đà Nẵng
Pho Hoi,hotel,15.8772983,108.3319068,Đà Nẵng
Hội quán Hải Nam,attraction,15.8778696,108.3319964,Đà Nẵng
Hỏa Sơn,peak,15.9984266,108.2560076,Đà Nẵng
Kim Sơn,peak,15.9997446,108.2562213,Đà Nẵng
Mộc Sơn,peak,16.0000029,108.2621751,Đà Nẵng
Linh Nham Cave,cave_entrance,16.0042103,108.2630874,Đà Nẵng
Thổ Sơn,peak,16.0047612,108.255928,Đà Nẵng
Thác Tóc Tiên,viewpoint,16.0244662,108.0262303,Đà Nẵng
Little Hoi An Boutique Hotel & Spa,hotel,15.875959,108.3228119,Đà Nẵng
Anantara Resort,hotel,15.8774464,108.3359654,Đà Nẵng
Nhà Nghỉ Thời Đại,guest_house,15.8826281,108.3247211,Đà Nẵng
Phương Đông Hotel,hotel,15.8821066,108.3244743,Đà Nẵng
Thien Thanh Boutique Hotel,hotel,15.882731,108.3242914,Đà Nẵng
Ha An Hotel,hotel,15.8775122,108.3351504,Đà Nẵng
Kazimierz Kwiatkowski,monument,15.8772786,108.3277903,Đà Nẵng
Under the coconut tree,guest_house,15.913809,108.3367717,Đà Nẵng
Tan Vinh,hotel,16.0670711,108.2241611,Đà Nẵng
Hoa Binh Hotel,hotel,15.881255,108.3260943,Đà Nẵng
Sanouva Danang Hotel,hotel,16.0669848,108.220137,Đà Nẵng
Jimy,hotel,16.072038,108.2428221,Đà Nẵng
Công Viên Vườn Tượng,,15.8764653,108.3248464,Đà Nẵng
Danang Riverside,hotel,16.0624934,108.2304346,Đà Nẵng
Muong Thanh,hotel,16.0648804,108.233028,Đà Nẵng
Rainbow,hotel,16.064497,108.223824,Đà Nẵng
Sun River,hotel,16.067392,108.2248021,Đà Nẵng
Avora Hotel,hotel,16.0664261,108.2246379,Đà Nẵng
Happy Day,hotel,16.0668209,108.2247629,Đà Nẵng
One Star,hotel,16.0672593,108.2243807,Đà Nẵng
Brilliant Hotel,hotel,16.0666727,108.2247119,Đà Nẵng
Newmoon,hotel,16.067647,108.224662,Đà Nẵng
Paradise,hotel,16.0672484,108.2248261,Đà Nẵng
Hoang Linh,hotel,16.0672663,108.2241581,Đà Nẵng
Minh Anh,hotel,16.0672628,108.2242698,Đà Nẵng
Bảo tàng Quân khu 5,museum,16.0480568,108.2177941,Đà Nẵng
Phuoc An Hotel,hotel,15.8829536,108.327237,Đà Nẵng
Oriental Boutique Hoi An,hotel,15.8850499,108.3492217,Đà Nẵng
Homestay The Corner,hotel,15.8754728,108.3269217,Đà Nẵng
Le Pavillion Gallery Hotel & Spa,hotel,15.8784987,108.3378221,Đà Nẵng
Funtastic Danang Hostel,hostel,16.071774,108.214645,Đà Nẵng
Hoi An Green Life Homestay,guest_house,15.8817464,108.3366039,Đà Nẵng
Sa Huynh,museum,15.8770347,108.3264247,Đà Nẵng
Hai Yen Hotel,hotel,15.8798805,108.3367728,Đà Nẵng
Windbell Homestay Villa,hotel,15.8724026,108.3360232,Đà Nẵng
The Village,hotel,15.8745452,108.3254367,Đà Nẵng
Nhà trọ Nguyễn Thị Nga,hostel,15.972693,108.2417865,Đà Nẵng
Nhà trọ Huỳnh Định,hostel,15.9713255,108.2439001,Đà Nẵng
Nhà trọ Nguyễn Thị Minh,hostel,15.9717087,108.2382033,Đà Nẵng
Nhà trọ DƯơng Thị Tánh,hostel,15.9671967,108.2382552,Đà Nẵng
Nhà trọ Tán Thanh Huyền,hostel,15.9700413,108.2442529,Đà Nẵng
Essence Hotel & Spa Hoi An,hotel,15.8800171,108.3164695,Đà Nẵng
Nhà trọ Hoàng Văn Sinh,hostel,15.970688,108.2440386,Đà Nẵng
Nhà trọ Trần Văn Hiếu,hostel,15.9766018,108.2496009,Đà Nẵng
Nhà trọ Đinh Quốc Vương,hostel,15.9788648,108.2525834,Đà Nẵng
Nhà trọ Lê Đức Tín,hostel,15.9786338,108.251049,Đà Nẵng
Nhà trọ Tán Cảnh,hostel,15.9786456,108.2512708,Đà Nẵng
Nhà trọ Nguyễn Văn Sỹ,hostel,15.9786338,108.2516775,Đà Nẵng
Nhà trọ Trần Quân,hostel,15.9764093,108.2493914,Đà Nẵng
Nhà trọ Mai Trúc Lâm,hostel,15.9756184,108.2479094,Đà Nẵng
Nhà trọ Nguyễn Quốc Dũng,hostel,15.9790396,108.2541639,Đà Nẵng
Nhà trọ Phạm Ngọc Hải,hostel,15.979241,108.2508611,Đà Nẵng
Nhà trọ Nguyễn Văn Hùng,hostel,15.9679696,108.2380122,Đà Nẵng
Nhà trọ Trần Hùng Sang,hostel,15.9803468,108.2521429,Đà Nẵng
Nhà trọ Hứa Diện,hostel,15.9803496,108.2511639,Đà Nẵng
Nhà trọ Trần Thái Phương,hostel,15.9782666,108.2521038,Đà Nẵng
Nhà trọ Ngô Đình Tú,hostel,15.9759866,108.248505,Đà Nẵng
Nhà trọ Nguyễn Long,hostel,15.9787751,108.2542858,Đà Nẵng
Nhà trọ Trần Trọng Khiêm,hostel,15.9776686,108.2538819,Đà Nẵng
Nhà trọ Nguyễn Ngọc Linh,hostel,15.9752877,108.2474964,Đà Nẵng
Nhà trọ Nguyễn Huy Vũ,hostel,15.975667,108.2476281,Đà Nẵng
Nhà trọ Phạm Nhật Tân,hostel,15.9758881,108.2474617,Đà Nẵng
Nhà trọ Huỳnh Đinh Dũng,hostel,15.9760015,108.2480471,Đà Nẵng
Nhà trọ Phan Thanh Huấn,hostel,15.9763562,108.2479304,Đà Nẵng
Nhà trọ Nguyễn Lê Việt,hostel,15.9764429,108.2492395,Đà Nẵng
Nhà trọ Nguyễn Thị Thu Hà,hostel,15.9785115,108.2525479,Đà Nẵng
Nhà trọ Nguyễn Doãn Chính,hostel,15.9761714,108.2489505,Đà Nẵng
Thanh Thanh Hotel,hotel,16.0673207,108.2201195,Đà Nẵng
Fulmar Hotel,hotel,16.0696685,108.2229641,Đà Nẵng
Hoa Việt Hotel,hotel,16.070395,108.223643,Đà Nẵng
Tân Phương Homestay,hotel,15.8886058,108.3277646,Đà Nẵng
Salute Hotel & Villa,hotel,15.8895164,108.3294909,Đà Nẵng
Prince Hoàng Tử Hotel,hotel,15.8887615,108.3291767,Đà Nẵng
Hà Bổng Hotel,hotel,16.068082,108.2437616,Đà Nẵng
Oc Tien Sa Hotel,hotel,16.0606999,108.2137377,Đà Nẵng
Funtastic Beach Hostel,hostel,16.0683414,108.2438326,Đà Nẵng
Trust Villa,guest_house,15.8819401,108.3498081,Đà Nẵng
Memories Guest House,guest_house,15.8808429,108.3415178,Đà Nẵng
Nam Anh Motel,motel,16.0688063,108.2425695,Đà Nẵng
VIP Garden Home,guest_house,15.8798921,108.3185629,Đà Nẵng
Núi Bà Nà,peak,15.9982174,107.9856335,Đà Nẵng
rang dong sunrise,guest_house,15.8826024,108.3271694,Đà Nẵng
Sincerity,hotel,15.8892378,108.3301425,Đà Nẵng
Cloudy Homestay,guest_house,15.8883177,108.3258192,Đà Nẵng
Petunia Garden Homestay & Hostel,hostel,15.884398,108.3476229,Đà Nẵng
Danang Backpackers Hostel,hostel,16.0697636,108.2210638,Đà Nẵng
Little Leo Homestay and Hostel,hostel,15.888903,108.3243043,Đà Nẵng
Thanh Ha Pottery Village,attraction,15.8771257,108.2989875,Đà Nẵng
Kim Bong Carpentry Village,attraction,15.865593,108.3256188,Đà Nẵng
Thanh Ha Pottery Village,attraction,15.8832622,108.3314662,Đà Nẵng
Non Nuoc Beach,attraction,16.0205336,108.261744,Đà Nẵng
Countryside Moon Homestay,hotel,15.8788118,108.3466062,Đà Nẵng
Little Home Hotel,hotel,16.0663852,108.2087596,Đà Nẵng
Tribee Hostel,hostel,15.8815028,108.3251065,Đà Nẵng
DK's hotel,hostel,15.8783565,108.3361936,Đà Nẵng
Faifo Hotel,hotel,16.0712651,108.2098782,Đà Nẵng
Green Glass Land Villa,hotel,15.8816388,108.3399278,Đà Nẵng
Azalea Homestay,hotel,15.8793694,108.3442977,Đà Nẵng
Hoi An Viva Villa Homestay,hotel,15.8888472,108.3294637,Đà Nẵng
Hua Thien Natural Flower Homestay,guest_house,15.8909884,108.3141629,Đà Nẵng
Golden Lantern Homestay,guest_house,15.8997688,108.2973193,Đà Nẵng
Saturday Option,attraction,16.0991336,108.3011822,Đà Nẵng
Artbook,artwork,15.8772293,108.3284566,Đà Nẵng
Viva Villa Homestay,hostel,15.8890638,108.3294052,Đà Nẵng
Lam Hung Seaside Homestay Villa,hotel,15.9080889,108.3481878,Đà Nẵng
Betel Garden Homestay Villas,hotel,15.878582,108.3450488,Đà Nẵng
Osaka Villa hotel,hotel,15.9035617,108.3294227,Đà Nẵng
Hoàng Phương Hotel,hotel,16.040909,108.2107662,Đà Nẵng
Blue Clouds Homestay,hotel,15.8794309,108.3189976,Đà Nẵng
Mayfair hotel& Apartment Da Nang,hotel,16.0736131,108.2416073,Đà Nẵng
The Moon River Hotel,hotel,15.902157,108.3417847,Đà Nẵng
EMM Hotel Hoi An,hotel,15.8831372,108.327357,Đà Nẵng
Sac Lo Homestay and Hostel,hostel,15.8809631,108.3469056,Đà Nẵng
Viet House Homestay,hotel,15.8834523,108.3262961,Đà Nẵng
Reaching Out Arts and Crafts,artwork,15.876624,108.327353,Đà Nẵng
Hoi Pho,hotel,15.8805767,108.3265494,Đà Nẵng
BACH DANG HOI AN HOTEL,hotel,15.8841631,108.3248706,Đà Nẵng
Royal Homestay,hostel,15.892059,108.318505,Đà Nẵng
Nova Villa Hoian,hotel,15.8757308,108.321928,Đà Nẵng
Nhà cổ Phùng Hưng,museum,15.8772193,108.3257902,Đà Nẵng
Ecodanang,guest_house,16.06841,108.23891,Đà Nẵng
Hoi An Viet House Homestay,guest_house,15.8833979,108.3263302,Đà Nẵng
Almanity Hoi An,hotel,15.8836,108.3275049,Đà Nẵng
Bảo tàng Mỹ Thuật Đà nẵng,artwork,16.0712623,108.2177145,Đà Nẵng
nhà thờ Phú Hạ,artwork,16.0337221,108.1057336,Đà Nẵng
bến xe Đà Nẵng,artwork,16.0572378,108.1723285,Đà Nẵng
cầu vượt Ngã Ba Huế,artwork,16.0600652,108.1761573,Đà Nẵng
ngã tư Phú Hạ,artwork,16.0301178,108.1155043,Đà Nẵng
Bờ Biển Vàng,information,16.0481678,108.2440355,Đà Nẵng
đèo Đại La - xã Hòa Sơn,artwork,16.042982,108.1348727,Đà Nẵng
chi nhánh Travel Indochina tại Đà nẵng,artwork,16.048629,108.2409543,Đà Nẵng
khách sạn Xanh - đường Hoàng văn Thái,artwork,16.0553852,108.1631626,Đà Nẵng
Ngã tư Quân Đoàn,artwork,16.0494977,108.2223405,Đà Nẵng
Seasnail Homestay,hotel,15.9092016,108.3440754,Đà Nẵng
1812 Boutique hostel,hostel,16.0694815,108.2424446,Đà Nẵng
B'Lan Riverside Villa,hotel,15.8751516,108.3194002,Đà Nẵng
Nhà hàng sinh thái Chân Trời Góc Bể,artwork,16.1006744,108.2244954,Đà Nẵng
Life Beach Villa,guest_house,15.913952,108.33859,Đà Nẵng
Vu's Bungalows,hotel,15.9123297,108.3374432,Đà Nẵng
Golden Lantern Homestay,guest_house,15.9010306,108.2981681,Đà Nẵng
milano cafe 233 nguyen van linh,artwork,16.0605495,108.2140182,Đà Nẵng
"obama beach - son tra, danang",artwork,16.0992659,108.3007404,Đà Nẵng
Dai Long hotel,hotel,16.0623771,108.1918861,Đà Nẵng
Típi Hostel,hotel,15.8817635,108.3280701,Đà Nẵng
Sac Xanh HomeStay,hostel,15.8890267,108.3219134,Đà Nẵng
Han Pho Homestay,hostel,15.8851112,108.3493472,Đà Nẵng
My An Beach,beach,16.025095,108.2595335,Đà Nẵng
Banyan Villa,guest_house,15.9138124,108.3388496,Đà Nẵng
An Bang Retreat,guest_house,15.9131799,108.3386002,Đà Nẵng
Truong Son Tung 5,hostel,16.0586832,108.2460005,Đà Nẵng
Sunshine Hotel,hotel,15.889084,108.3300474,Đà Nẵng
Jessica's House (Mina Le villa),hotel,15.878257,108.3408011,Đà Nẵng
Golden River Hotel,hotel,15.8759544,108.3242272,Đà Nẵng
Simbas hotel,hotel,15.9262426,108.32322,Đà Nẵng
Van Loi Hotel,hotel,15.8725482,108.3324588,Đà Nẵng
Star hotel,hotel,16.073522,108.24215,Đà Nẵng
Bien Vang Hotel,hotel,16.0709263,108.2352601,Đà Nẵng
Mercure Hotels,hotel,15.9973976,107.9882316,Đà Nẵng
Hung Do Beach Homestay,hostel,15.9144416,108.3355018,Đà Nẵng
Nguyen Duy Homestay,guest_house,15.8666552,108.3222578,Đà Nẵng
Vy's Seaside Homestay,hostel,15.9254658,108.3201855,Đà Nẵng
Barney's Danang Backpacker's Hostel,hostel,16.0789241,108.2289649,Đà Nẵng
hoamy II Hotel,hotel,15.8826779,108.3272256,Đà Nẵng
Phuc Thao Villa,hotel,15.8841677,108.3444897,Đà Nẵng
Triem Tay Village,attraction,15.8721333,108.3055893,Đà Nẵng
Moc Vien homestay,hostel,15.8818686,108.336256,Đà Nẵng
Nha Mo Luc,information,15.9883793,108.2088177,Đà Nẵng
Nha Mo Luc,information,15.9881107,108.2094699,Đà Nẵng
Fusion Suites,hotel,16.0810779,108.24697,Đà Nẵng
CaPhe Giai Khat 78,hotel,16.0593521,108.2084405,Đà Nẵng
Nha me Lanh,guest_house,16.0730481,108.1863864,Đà Nẵng
Banana Homestay,hotel,15.8745882,108.3323835,Đà Nẵng
Hoi An Old Town,artwork,15.8779509,108.3239898,Đà Nẵng
Flóra Hotel,hotel,16.0607119,108.2184792,Đà Nẵng
Sea Phoenix Hotel,hotel,16.0409715,108.2483633,Đà Nẵng
TNT Villa,hotel,15.880295,108.32429,Đà Nẵng
Big Brother Homestay,hotel,15.8816429,108.3366261,Đà Nẵng
Khách sạn Hải An,hotel,16.0755387,108.178744,Đà Nẵng
Hung binh hotel,hotel,16.0824068,108.2204617,Đà Nẵng
homstay heo đất32,hostel,16.0434346,108.212103,Đà Nẵng
Ha My Seaside Guesthouse,hostel,15.9252897,108.3202233,Đà Nẵng
Homestay Basil,guest_house,15.8931484,108.3148896,Đà Nẵng
Cong an My An,artwork,16.0426203,108.2481811,Đà Nẵng
Điêm Dùng Chân,information,15.876274,108.3300049,Đà Nẵng
An Bang Beach Homestay,guest_house,15.9137723,108.3365284,Đà Nẵng
Nhà trọ VTV,guest_house,16.0614403,108.2101891,Đà Nẵng
To Quoc Ghi Cong,monument,16.023789,108.2477299,Đà Nẵng
quan quan hotel,hotel,16.0536953,108.2096156,Đà Nẵng
Cát Việt Travel & Media,artwork,16.0580155,108.2206803,Đà Nẵng
Riverside Pottery Village Hoi An,hotel,15.8805156,108.2982121,Đà Nẵng
Tourism information center,information,15.879926,108.329258,Đà Nẵng
Trúc Huy Villa,guest_house,15.8841791,108.347389,Đà Nẵng
Thu's house,artwork,15.8878852,108.1118451,Đà Nẵng
Blue coral diving,information,15.8764531,108.3288611,Đà Nẵng
Uptown Hotel,hotel,15.8839475,108.3262684,Đà Nẵng
Dan Oasis Hotel,hotel,16.0954944,108.2520272,Đà Nẵng
Coconut Garden,hotel,15.8710383,108.3493234,Đà Nẵng
Trendy life villa,hotel,15.8812628,108.3464312,Đà Nẵng
Trung tâm Giải trí Phức hợp Helio Center,theme_park,16.0364559,108.2246715,Đà Nẵng
Daisy Garden Villa,hostel,15.8782812,108.342796,Đà Nẵng
Ngôi nhà cũ màu vàng,guest_house,15.8777892,108.3290704,Đà Nẵng
Nơi ở,hotel,16.0608379,108.2136384,Đà Nẵng
313 cua dai - viethouse homestay,guest_house,15.8824528,108.3460031,Đà Nẵng
Sunny Hoian homestay,guest_house,15.8844995,108.3448419,Đà Nẵng
basil homestay,hostel,15.8934094,108.3151871,Đà Nẵng
San San Hotel,hotel,16.0553158,108.2453862,Đà Nẵng
Fishing Village and Fleet,attraction,16.1017543,108.2589632,Đà Nẵng
TruongVuHouse's,guest_house,16.0969476,108.1355671,Đà Nẵng
Đài Kỷ Niệm Danh Nhân Chí Sĩ Quảng Nam,memorial,15.8791656,108.323789,Đà Nẵng
The Hoi An Hippie Hostel,hostel,15.9158622,108.3358572,Đà Nẵng
Home,hotel,15.9798181,108.249729,Đà Nẵng
Cam Nam Homestay,guest_house,15.8731778,108.3329482,Đà Nẵng
Sea Snails Homestay,hotel,15.9072833,108.3473282,Đà Nẵng
An Bang Vera Villas,hotel,15.9076515,108.3473017,Đà Nẵng
Blue An Bang Villa,hotel,15.9069174,108.3482889,Đà Nẵng
Tan Thanh Garden 2,hotel,15.9072326,108.3487973,Đà Nẵng
Bảy Ban,camp_site,16.1058044,108.2916629,Đà Nẵng
sông Thu,guest_house,16.0689403,108.2396608,Đà Nẵng
Lantana Hoi An Boutique Hotel,hotel,15.8758174,108.3222674,Đà Nẵng
Nhà của Vĩnh Brooklyn,motel,16.0832087,108.2217292,Đà Nẵng
Phùng Hung,attraction,15.8770404,108.3263229,Đà Nẵng
Tài,wilderness_hut,16.0209591,108.2096842,Đà Nẵng
Hijal house,guest_house,15.8897479,108.321455,Đà Nẵng
Art Gallery Alley,artwork,15.8773051,108.3303466,Đà Nẵng
Cậu 8,motel,16.0658992,108.240998,Đà Nẵng
Chị Hoa,motel,16.0759086,108.2108251,Đà Nẵng
nhà Chị Hoa,motel,16.075884,108.2107515,Đà Nẵng
nhà cậu 8,motel,16.0659048,108.2409433,Đà Nẵng
Green Hill Hotel,hotel,15.888753,108.3285711,Đà Nẵng
Huệ Chi,guest_house,16.0810276,108.2296778,Đà Nẵng
Chị Hoa,guest_house,16.0759094,108.2108049,Đà Nẵng
Hồ Hoà Trung,information,16.0800271,108.0595751,Đà Nẵng
đnHUỆchi,motel,16.0848619,108.2296776,Đà Nẵng
đnChịHOA,motel,16.0758941,108.2108875,Đà Nẵng
đnCậu8,motel,16.0658066,108.2409218,Đà Nẵng
Ca Chep Hoa Rong,artwork,16.062925,108.2298159,Đà Nẵng
Chu Dai Bi,artwork,16.0643389,108.2429817,Đà Nẵng
Tien Son Bridge,attraction,16.0352694,108.2352722,Đà Nẵng
Tran Thi Ly Bridge,attraction,16.050179,108.2293814,Đà Nẵng
Thuan Phuoc Bridge,attraction,16.0948525,108.2204317,Đà Nẵng
Nguyen Duy Hieu,monument,15.885147,108.3256249,Đà Nẵng
Cau Nguyen Van Troi Bridge,attraction,16.0510888,108.2292466,Đà Nẵng
Núi Thần Tài,attraction,15.9681262,108.0196301,Đà Nẵng
chung cư số 4 nguyễn tri phương,apartment,16.0374466,108.2119179,Đà Nẵng
Khamy Café,hotel,15.8753573,108.3460042,Đà Nẵng
Triple Riverside Villas,hotel,15.8756437,108.3450023,Đà Nẵng
Khu Du Lịch Sinh Thái Suối Lương,attraction,16.1559167,108.1098007,Đà Nẵng
Zion Hostel,hotel,16.0628057,108.2185885,Đà Nẵng
Little Hoian Central Boutique Hotel & Spa,hotel,15.8797503,108.319306,Đà Nẵng
Iris Hotel,hotel,16.0701554,108.2137712,Đà Nẵng
Red Palace Hotel,hotel,16.0516704,108.211934,Đà Nẵng
King Garden Hotel,hotel,16.0514417,108.2114422,Đà Nẵng
Green Coco Homestay,guest_house,15.8833902,108.3299905,Đà Nẵng
Nu Ni Homestay,hotel,15.879722,108.325204,Đà Nẵng
Zenta Hotel,hotel,16.0487689,108.2484197,Đà Nẵng
Kara Beachside hotel,hotel,16.0439303,108.2469894,Đà Nẵng
Sunflower Hotel 2,hotel,16.0737604,108.2409435,Đà Nẵng
Green Grass Homestay,guest_house,15.8896318,108.323101,Đà Nẵng
Santa Villa Hoi An,hotel,15.9077945,108.3487873,Đà Nẵng
HaLo Homestay,hostel,16.0668988,108.2438296,Đà Nẵng
Khách sạn Công Đoàn Hội An,hotel,15.8799987,108.3261811,Đà Nẵng
Thanh Vân 1,hotel,15.8799891,108.3262799,Đà Nẵng
Hoi An Sala,hotel,15.8800065,108.3252434,Đà Nẵng
Café Tin;,hotel,15.8799317,108.3251631,Đà Nẵng
Allegro Hoi An Luxury Hotel & Spa,hotel,15.8807525,108.3245259,Đà Nẵng
Nghĩa trang Liệt Sĩ,monument,15.8898126,108.3179345,Đà Nẵng
Hoi An Ancient House Resort & Spa,hotel,15.8802989,108.3428569,Đà Nẵng
Khách sạn Bốn Mùa,hotel,16.0428944,108.2100876,Đà Nẵng
Otium hostel danang,hostel,16.0762739,108.2205138,Đà Nẵng
ON - Ancient Town,hotel,15.8799518,108.3254989,Đà Nẵng
Melody Boutique Villa,guest_house,15.8950431,108.3177377,Đà Nẵng
"Phòng vé cáp treo Bà Nà Hills, Hoà Ninh, Hòa Vang, Đà Nẵng, 베트남",information,16.0255198,108.0308928,Đà Nẵng
Starfish Alley Hostel,hostel,16.046085,108.2469666,Đà Nẵng
Hoàng Lan,apartment,15.9051401,108.3133014,Đà Nẵng
Palazzo Boutique,hotel,16.0491115,108.2477313,Đà Nẵng
Terracotta Park,museum,15.8778967,108.3001365,Đà Nẵng
Phuc An,hotel,15.8750672,108.3237076,Đà Nẵng
Golden Bee Homestay,guest_house,15.8888455,108.3236643,Đà Nẵng
Cents Hotel,hotel,16.0628484,108.2306558,Đà Nẵng
Hoa Binh Hostel,hotel,15.8811378,108.3258674,Đà Nẵng
Hoa Binh Hostel,hotel,15.8806856,108.325839,Đà Nẵng
Little Raon Hotel,hotel,16.0656033,108.2445514,Đà Nẵng
Tâm House Villa Hotel,hotel,16.057376,108.2430631,Đà Nẵng
La COOL House Hostel,hostel,16.0687774,108.2358207,Đà Nẵng
miền trung,hotel,15.8996963,108.2436775,Đà Nẵng
Chloe,information,15.8875456,108.3278163,Đà Nẵng
Nhà Madam Liên,apartment,15.9237006,108.3167777,Đà Nẵng
Emerald Waters Hotel & Spa,hotel,15.8893173,108.3288337,Đà Nẵng
Ti Gôn Homestay,hostel,15.880788,108.322268,Đà Nẵng
Thiện Thanh,hotel,15.8828631,108.3242966,Đà Nẵng
Hoa cà,hotel,15.8822811,108.3244217,Đà Nẵng
Hội An Paradise Hotel,guest_house,15.8816456,108.3234749,Đà Nẵng
Hoang Trinh,hotel,15.8797452,108.3236264,Đà Nẵng
Diep Dong Nguyen,museum,15.8766285,108.3285601,Đà Nẵng
Bài Chòi Hoi An,information,15.8765491,108.3268235,Đà Nẵng
Biệt Thự Hương Xưa,hotel,15.9050134,108.3121611,Đà Nẵng
Corner Riverside Villa,hotel,15.8772087,108.3169024,Đà Nẵng
An Thịnh Homestay,guest_house,15.877577,108.3219123,Đà Nẵng
ChaChi homestay,guest_house,16.0638824,108.2343162,Đà Nẵng
hoàng kim khách sạn,hotel,16.1308058,108.119611,Đà Nẵng
Nhà Đậu Phụng,apartment,15.9969739,108.13225,Đà Nẵng
Tribee Ede hostel,hostel,15.8823154,108.3244711,Đà Nẵng
Huy Hoang Garden Hotel,hotel,15.8798063,108.3187422,Đà Nẵng
Smart Garden Homestay,hotel,15.8798106,108.318913,Đà Nẵng
Orchide’es,hotel,16.068851,108.2441758,Đà Nẵng
Pho Hoi Riverside Resort,hotel,15.8745316,108.3332791,Đà Nẵng
travidat,hotel,16.067533,108.2443277,Đà Nẵng
Dreamy House,hotel,16.067078,108.2438459,Đà Nẵng
Longan Homestay,hotel,15.8785208,108.3225385,Đà Nẵng
D Central Homestay,hotel,15.8752461,108.3268048,Đà Nẵng
nhà nghỉ tạm,hotel,16.0856756,108.1443601,Đà Nẵng
Art in Paradise Da Nang 3D Museum,museum,16.0953807,108.2430769,Đà Nẵng
City Hostel Danang,hostel,16.0653434,108.2223565,Đà Nẵng
4 Seasons Danang Hostel,hostel,16.050939,108.2404008,Đà Nẵng
Hoa My II,hotel,15.8828657,108.3269773,Đà Nẵng
Loca Hostel,hostel,16.0735966,108.2422569,Đà Nẵng
Dong Tang Chon,cave_entrance,16.004286,108.2641295,Đà Nẵng
Buddha,artwork,16.0043609,108.2645787,Đà Nẵng
Nhà thuê viễn,motel,16.1301005,108.119683,Đà Nẵng
Landing house,apartment,16.0541957,108.2063052,Đà Nẵng
Sepon Blue Hotel,hotel,16.061857,108.2378636,Đà Nẵng
No Way,information,16.1471162,108.2325513,Đà Nẵng
The Earth Villa,hotel,15.8827523,108.3461086,Đà Nẵng
Green Balcony Hostel & Coffee,hostel,16.0683158,108.2404477,Đà Nẵng
Backhome Hostel,hostel,15.8822743,108.3245555,Đà Nẵng
Local Beach Homestay,hotel,15.9155594,108.3357696,Đà Nẵng
Phan Kim Chi Art Gallery,gallery,15.8774754,108.3285499,Đà Nẵng
Chợ Đêm,attraction,15.8757772,108.3259285,Đà Nẵng
Danang Moment - Boutique Serviced Apartment,apartment,16.0492961,108.2437637,Đà Nẵng
Deserted Road full of Monkeys,viewpoint,16.1085176,108.2558001,Đà Nẵng
Hilton Garden Inn Da Nang,hotel,16.0801031,108.2464178,Đà Nẵng
Cucumber Hostel,hostel,15.8822165,108.3275061,Đà Nẵng
Anh TUẤN,motel,16.0769551,108.2206615,Đà Nẵng
MƯỜI,motel,16.0654097,108.2325788,Đà Nẵng
pham gia villa,hotel,15.8849728,108.328769,Đà Nẵng
Sô.Va Art Hand Embroidery,artwork,15.8770649,108.3279435,Đà Nẵng
Ancient House (free),attraction,15.8820042,108.3264125,Đà Nẵng
Khong Cam Garden Villas,hotel,15.8792544,108.3207721,Đà Nẵng
Leo Leo homestay,hostel,15.8812127,108.3261736,Đà Nẵng
Zari House,hostel,16.0416686,108.2465989,Đà Nẵng
bella boutique Villa,hotel,16.0777588,108.2444152,Đà Nẵng
Hero Statue,artwork,16.0653638,108.2045114,Đà Nẵng
Green Grapefruit Villa,hotel,15.8771598,108.3448725,Đà Nẵng
Elena,hotel,16.0488744,108.2483821,Đà Nẵng
Ruby Hotel,hotel,16.0491799,108.248285,Đà Nẵng
Sunrise Hotel,hotel,16.0496369,108.2481244,Đà Nẵng
Angel Hotels,hotel,16.0486026,108.2481857,Đà Nẵng
Sunny Riverside Homestay,hotel,15.8716493,108.345441,Đà Nẵng
Cây đa đại thụ,attraction,16.1226157,108.3316779,Đà Nẵng
Bougain Villeas Homestay,hotel,15.8789196,108.3466505,Đà Nẵng
Jasmine Homestay,hotel,15.8785795,108.3465387,Đà Nẵng
Son Tra Green Hotel,hotel,16.0881891,108.2444228,Đà Nẵng
Sun World Asia Park,,16.0399668,108.2268339,Đà Nẵng
Hội An Highlights,information,15.8776482,108.3323713,Đà Nẵng
Sơ Đồ Du Lịch Hội An,information,15.8794729,108.33119,Đà Nẵng
Đi Outdoor,camp_site,16.0516883,108.2089317,Đà Nẵng
Green Garden House,hostel,15.8827164,108.3253125,Đà Nẵng
Green Town Hotel,hotel,15.8825963,108.3327609,Đà Nẵng
Cementerio militar franco-español de Y Pha Nho,memorial,16.1223304,108.2200384,Đà Nẵng
Solar Hotel,hotel,16.0309898,108.2250188,Đà Nẵng
New Orient Hotel,hotel,16.0825866,108.2214313,Đà Nẵng
Cây đa Đò Xu,attraction,16.0276784,108.2218873,Đà Nẵng
New Life Hotel,hotel,16.0335638,108.2206857,Đà Nẵng
Thanh Nhung,hotel,16.0712142,108.2360048,Đà Nẵng
Lenid,hotel,16.0713438,108.2363631,Đà Nẵng
Tabii,hotel,16.0729945,108.2372723,Đà Nẵng
Luxtery,hotel,16.070692,108.2357923,Đà Nẵng
Herriott,hotel,16.0718093,108.238651,Đà Nẵng
Mari Gold,hotel,16.0692957,108.2415842,Đà Nẵng
Rosetta,hotel,16.0687168,108.2423129,Đà Nẵng
Phố cổ Hội An,artwork,15.8784139,108.3234141,Đà Nẵng
Heritage Hotel,hotel,15.876968,108.3205765,Đà Nẵng
Casa Tan my,attraction,15.8764811,108.3270804,Đà Nẵng
D&C Hotel,hotel,16.0661345,108.2310854,Đà Nẵng
Nha Chung Homestay,hostel,16.0638036,108.2385305,Đà Nẵng
Toc Tien Station,information,16.0269471,108.0310449,Đà Nẵng
Alana Homestay,hotel,15.8941068,108.3092754,Đà Nẵng
Villa Loan,hotel,15.8989566,108.318726,Đà Nẵng
Waikiki Hotel,hotel,16.0730869,108.2012776,Đà Nẵng
Yên Retreat,camp_site,16.13777,108.0582407,Đà Nẵng
Iris Villa Hoi An,hotel,15.8816919,108.3366166,Đà Nẵng
Hilary Hotel,hotel,16.0733588,108.2429392,Đà Nẵng
GIOANG,apartment,16.0754888,108.2103505,Đà Nẵng
AnhTUẤN,apartment,16.0768733,108.2206099,Đà Nẵng
HÙNGđn,apartment,16.0704904,108.2133284,Đà Nẵng
GIOANG,apartment,16.0756899,108.2101253,Đà Nẵng
Cheerful Hoi An Hostel,hostel,15.8884578,108.3277127,Đà Nẵng
HÙNGdn,apartment,16.0705741,108.2133491,Đà Nẵng
Chung cư Vicoland,apartment,16.0443346,108.2176027,Đà Nẵng
Terracotta Homestay,hotel,15.8772948,108.2992938,Đà Nẵng
Lantern street,attraction,15.8761042,108.3284,Đà Nẵng
Hoa Thu Homestay,hotel,15.8745519,108.3261206,Đà Nẵng
Nhà vui Happy Town Hoi an,hostel,15.8813339,108.3278573,Đà Nẵng
Dreams Hotel,hotel,16.0420845,108.248275,Đà Nẵng
nhà riêng,apartment,16.0475207,108.1769956,Đà Nẵng
Happy Town,guest_house,15.8812073,108.328474,Đà Nẵng
Herb Garden Villa,apartment,15.8993429,108.3393295,Đà Nẵng
FC Hotel & Coffee,hotel,16.0697171,108.2241967,Đà Nẵng
Peach House Villa,hotel,15.9142742,108.3376913,Đà Nẵng
Da Nang Visitor Centre,information,16.0684794,108.2248261,Đà Nẵng
Art Gallery,gallery,16.0857203,108.2194277,Đà Nẵng
Night Sky Hotel,hotel,16.0886808,108.2195747,Đà Nẵng
Thái Bình,hotel,16.0876027,108.2201148,Đà Nẵng
Đại Á,hotel,16.065957,108.2226034,Đà Nẵng
Ocean Flower,hotel,16.0692472,108.2238806,Đà Nẵng
Tulip Hotel,hotel,16.0706895,108.2238849,Đà Nẵng
Ann Retreat Resport & Spa,hotel,15.8753154,108.3195538,Đà Nẵng
Evelyn Hotel,hotel,16.0687296,108.2240722,Đà Nẵng
Lullaby,apartment,16.0522853,108.2395573,Đà Nẵng
Fivitel Boutique da nang,hotel,16.0643682,108.2206297,Đà Nẵng
Hoi An Traditional Art Performance House,attraction,15.8760742,108.3296451,Đà Nẵng
Hoi An Museum of Traditional Medicine,museum,15.8766492,108.3298384,Đà Nẵng
Homestay Hi Guy,guest_house,15.8753465,108.3221598,Đà Nẵng
139nguyễn đucedm,guest_house,16.062815,108.2101633,Đà Nẵng
Bai Camping,camp_site,16.1883561,108.1361985,Đà Nẵng
van may home stay,guest_house,15.8925011,108.3150938,Đà Nẵng
Nhà Phố Homestay,guest_house,15.8823712,108.3252647,Đà Nẵng
An Bang My Village Homestay,guest_house,15.9127837,108.3368629,Đà Nẵng
River Sunset Garden Villas & Homestay,guest_house,15.9068264,108.3351704,Đà Nẵng
Tata House,apartment,16.052034,108.2428026,Đà Nẵng
Vinh Khang;Vinh khang homestay,hotel,15.8811628,108.3274707,Đà Nẵng
Han Swinging Bridge,attraction,16.0721398,108.2268106,Đà Nẵng
THANHđn,apartment,16.0419488,108.211459,Đà Nẵng
HƯNGđn,apartment,15.9443093,108.1630475,Đà Nẵng
NhàThờTộcHọTRẦN,apartment,15.9443495,108.1635122,Đà Nẵng
HÙNGđn,apartment,16.0705085,108.2133449,Đà Nẵng
THANHđn,apartment,16.0419971,108.2114736,Đà Nẵng
HƯNGđn,apartment,15.944342,108.1631508,Đà Nẵng
NhàThờTộcHọTRẦN,apartment,15.9442631,108.1634614,Đà Nẵng
HÙNGđn,apartment,16.0704863,108.2133763,Đà Nẵng
ChúThanh,apartment,16.0419688,108.2114736,Đà Nẵng
HƯNGđn,apartment,15.9442322,108.1629652,Đà Nẵng
Tháp Bằng An,ruins,15.8846586,108.2330868,Đà Nẵng
Cẩm Kim,attraction,15.8637945,108.3247834,Đà Nẵng
Tamihouse,hostel,15.888976,108.3461167,Đà Nẵng
The Code,hotel,16.0952888,108.251941,Đà Nẵng
HƯNGđiệntiến,apartment,15.9441035,108.1628323,Đà Nẵng
Chú Hưng,apartment,15.9441261,108.1629288,Đà Nẵng
Hoi An Heart Lodge,hotel,15.8808257,108.3272575,Đà Nẵng
My Little Pig Homestay,hostel,16.0704986,108.233022,Đà Nẵng
Bảo tàng Phật giáo,museum,15.9994308,108.2545831,Đà Nẵng
Bến du thuyền Tiệm Rượu Chợ Củi Kẻ Thá,artwork,15.8571121,108.2723191,Đà Nẵng
Cầu Gò Nổi mới,castle,15.8512507,108.2626381,Đà Nẵng
Nhà Thờ Bình An,memorial,15.8537286,108.2724278,Đà Nẵng
Han Huyen Homestay,hotel,15.874653,108.3272941,Đà Nẵng
Han Huyen Homestay,guest_house,15.8746265,108.3271755,Đà Nẵng
TASY STUDIO,gallery,15.9256934,108.2939032,Đà Nẵng
Aria Đà Nẵng,hotel,15.9896594,108.2723335,Đà Nẵng
Huy Hoang Hotel,hotel,16.0721459,108.1939154,Đà Nẵng
Tomorrow Villa,hotel,15.8724195,108.3355199,Đà Nẵng
The Eden,hotel,16.07733,108.1737329,Đà Nẵng
Mikazuki Đà Nẵng Hotel,hotel,16.0935456,108.1444194,Đà Nẵng
Fantasy Park,theme_park,15.9968339,107.9888036,Đà Nẵng
Vin Hung Old Town Hotel,hotel,15.8743901,108.3250009,Đà Nẵng
Bonsai Villa Hoi An,hotel,15.8721958,108.3312111,Đà Nẵng
Chi House Hotel & Apartment,hotel,16.0617324,108.2452005,Đà Nẵng
Hai Yen Hotel,hotel,16.0615001,108.2453032,Đà Nẵng
Vin Hung Riverside Resort & Spa,hotel,15.8741933,108.3245703,Đà Nẵng
Núi Phước Tường,peak,16.0277351,108.1647027,Đà Nẵng
Núi Cẩm Khê,peak,16.0349223,108.1622001,Đà Nẵng
Hoi An Memories Resort & Spa,hotel,15.8752745,108.3382954,Đà Nẵng
Who Villa by Vesta,guest_house,15.8850414,108.3496621,Đà Nẵng
DTC Hotel,hotel,16.0626468,108.2460673,Đà Nẵng
Radisson,hotel,16.0738701,108.2447708,Đà Nẵng
Hoi An Sunny Pool Villa,hotel,15.8727164,108.3322053,Đà Nẵng
The Muse house,hotel,15.8723003,108.3358956,Đà Nẵng
Vang Anh Homestay,hotel,15.8812298,108.3265091,Đà Nẵng
Hoi An Odyssey Hotel & Spa,hotel,15.8719982,108.3299675,Đà Nẵng
Calm House Villa,hotel,15.872175,108.3361221,Đà Nẵng
The Memory - Danang,hotel,16.0669994,108.2430093,Đà Nẵng
Pont main,attraction,16.0520775,108.2156357,Đà Nẵng
Làng đá mỹ nghệ Non Nước,attraction,16.0009523,108.2666434,Đà Nẵng
Làng đúc đồng Phước Kiều,attraction,15.8700868,108.2613646,Đà Nẵng
Làng chiếu Cẩm Nê,attraction,15.9867322,108.1772823,Đà Nẵng
Làng mộc Kim Bồng,attraction,15.8645169,108.3253021,Đà Nẵng
Làng nước mắm Nam Ô,attraction,16.1128315,108.1300902,Đà Nẵng
Làng mộc Thanh Hà,attraction,15.877712,108.3009146,Đà Nẵng
Đài tưởng niệm thảm sát Hà My,memorial,15.9252377,108.3065476,Đà Nẵng
Pebble Homestay,hotel,15.8736227,108.3324617,Đà Nẵng
Rom Casa Hostel,hostel,16.0484407,108.2465963,Đà Nẵng
Mavina Villa,hotel,15.8732343,108.332121,Đà Nẵng
Hana Homestay Danang,guest_house,16.0565287,108.2445298,Đà Nẵng
No Automatic Scooters,information,16.1137653,108.3097764,Đà Nẵng
Núi Đồng Đen,peak,16.1073907,108.0386388,Đà Nẵng
Quang Vinh Apartment and Hotel Hoi An,hotel,15.88239,108.3337869,Đà Nẵng
MaiChi Villa,hotel,15.8776174,108.3218313,Đà Nẵng
Guest Information,information,16.0389567,108.2287873,Đà Nẵng
MeKong Rest Stop,motel,16.1449901,108.1058892,Đà Nẵng
Dragon's Tail,attraction,16.06108,108.2248167,Đà Nẵng
Dragon's Head (Fire Show),attraction,16.0612476,108.2296554,Đà Nẵng
Buddha,artwork,16.0043207,108.2622067,Đà Nẵng
Buddha,artwork,16.004402,108.2638971,Đà Nẵng
Lang Bich hoa Da Nang,attraction,16.0607097,108.2200254,Đà Nẵng
Hội Quán Phước Kiến,attraction,15.877412,108.3306003,Đà Nẵng
Nam Son Pagoda,attraction,15.9987986,108.2051036,Đà Nẵng
Hotel de Marseille,hotel,15.9969473,107.9880352,Đà Nẵng
Hotel de Strasbourg,hotel,15.9972684,107.9867889,Đà Nẵng
Crowd watching,viewpoint,15.8764862,108.3268477,Đà Nẵng
Hotel de Paris,hotel,15.9975206,107.987915,Đà Nẵng
Ponte Boutique Da Nang,hotel,16.0746079,108.2427787,Đà Nẵng
Lantana Riverside Hotel Hoi An,hotel,15.875685,108.3452584,Đà Nẵng
Golden Bell Backpacker hotel,hotel,15.8826062,108.3359994,Đà Nẵng
Hero`s House,hotel,15.8953056,108.321342,Đà Nẵng
Chợ đêm Helio,attraction,16.0371449,108.2244066,Đà Nẵng
"Khách Sạn Sea Castle Hotel
Sea Castle Hotel",hotel,16.0683117,108.243309,Đà Nẵng
Khách sạn Golden Lotus Grand Đà Nẵng,chalet,16.0477415,108.2464455,Đà Nẵng
Tượng Mẹ Nhu,monument,16.0652606,108.1833538,Đà Nẵng
Molila Villa Hoi An by Class6,hotel,15.9070881,108.341251,Đà Nẵng
Lady Buddha,artwork,15.8920772,108.3236654,Đà Nẵng
Lady Buddha,artwork,15.8886194,108.3269418,Đà Nẵng
Bamboo Garden Homestay,guest_house,15.8772432,108.3421777,Đà Nẵng
CÂY ĐA,tree,15.8801204,108.3278894,Đà Nẵng
Hải Đảo villa Hội An,hotel,15.8872755,108.3321277,Đà Nẵng
Elephant,artwork,15.8779055,108.3287514,Đà Nẵng
Elephant,artwork,15.8778999,108.328805,Đà Nẵng
Military blockhouse ruins,ruins,15.8794937,108.3335921,Đà Nẵng
DI TÍCH LỊCH SỬ CÁCH MẠNG,memorial,15.8857313,108.3360989,Đà Nẵng
Lady Buddha,artwork,16.0609832,108.2178549,Đà Nẵng
Military blockhouse ruins,ruins,15.8794095,108.3342216,Đà Nẵng
Núi Khe Xương,peak,16.0647808,107.9641938,Đà Nẵng
Núi Hải Vân,peak,16.1922104,108.136611,Đà Nẵng
Núi Hoi,peak,16.1836944,108.1097027,Đà Nẵng
Phoenix Guesthouse,guest_house,15.9128907,108.3382573,Đà Nẵng
Lama Beach Villa,guest_house,15.9132086,108.3389718,Đà Nẵng
Phoenix,guest_house,15.912899,108.3382555,Đà Nẵng
Phoenix Guesthouse,guest_house,15.9130102,108.3380438,Đà Nẵng
ChiPa Homestay,guest_house,16.0589381,108.2094602,Đà Nẵng
Núi Hòng Chan,peak,16.1936801,107.9687946,Đà Nẵng
Rào chắn,viewpoint,16.1167482,108.3084376,Đà Nẵng
Lady Buddha,attraction,16.0996459,108.276997,Đà Nẵng
Haka Boutique Hotel,hotel,16.0789591,108.2446667,Đà Nẵng
Lucia beach hotel,hotel,16.0688138,108.2435395,Đà Nẵng
Alyssa hotel,hotel,16.0686659,108.2388273,Đà Nẵng
Lu peaceful homestay,guest_house,16.0551135,108.189185,Đà Nẵng
Dr. Dan Hotel & Apartment,hotel,16.1055133,108.2594805,Đà Nẵng
New Day,hotel,16.104614,108.2572551,Đà Nẵng
Queen Cobra,attraction,16.0432987,108.22599,Đà Nẵng
Altara Suites,hotel,16.0777438,108.2451365,Đà Nẵng
Mimi’s House,guest_house,15.8979798,108.3468367,Đà Nẵng
Bay Capital Da Nang Hotel,hotel,16.0750141,108.221755,Đà Nẵng
Tashi Park View Hotel & Apartment,hotel,16.0763967,108.2418113,Đà Nẵng
Hong Chau,hotel,16.0735258,108.242881,Đà Nẵng
Siro House Homestay,guest_house,16.0539254,108.2402218,Đà Nẵng
Kon-Tiki Hostel,hostel,16.0642477,108.2308224,Đà Nẵng
Pha Lê Hotel,hotel,16.0668574,108.2430295,Đà Nẵng
An Vu Villa Hoi An,hotel,15.9057931,108.3456414,Đà Nẵng
Zuka Hotel & Apartments,hotel,16.0677368,108.2436651,Đà Nẵng
Diamond Beach,hotel,16.0741685,108.2395703,Đà Nẵng
Alibaba,hotel,16.0720626,108.2428897,Đà Nẵng
Star near me Hotel,hotel,16.0735167,108.2414618,Đà Nẵng
Grand Sea View Hotel,hotel,16.0499198,108.2471017,Đà Nẵng
voco - Ma Belle Danang,hotel,16.0742159,108.2447634,Đà Nẵng
Cherry Hotel & Apartments,hotel,16.0543834,108.2458171,Đà Nẵng
Hodi Hotel,hotel,16.05511,108.2445499,Đà Nẵng
Adela,hotel,16.052917,108.2440574,Đà Nẵng
Sydney Da Nang,hotel,16.0523364,108.2442488,Đà Nẵng
Baan Taley Da Nang,hotel,16.0509565,108.2466457,Đà Nẵng
Raon,hotel,16.0510524,108.2463307,Đà Nẵng
Malisa,hotel,16.0607363,108.2186955,Đà Nẵng
Mercury,hotel,16.0603892,108.2158377,Đà Nẵng
Do Hai,hotel,16.0601454,108.2139664,Đà Nẵng
Madame Trang,hotel,16.0611062,108.2347998,Đà Nẵng
Hiyori Garden Tower,hotel,16.0613917,108.2353554,Đà Nẵng
Gemma,hotel,16.0615288,108.2364112,Đà Nẵng
Khanh Vinh,hotel,16.0621372,108.2373514,Đà Nẵng
Calix,hotel,16.0617296,108.2373536,Đà Nẵng
San Marino,hotel,16.0617252,108.237526,Đà Nẵng
Rivera Boutique,hotel,16.0621633,108.2376213,Đà Nẵng
Mi An,hotel,16.0622963,108.238338,Đà Nẵng
Golden Sun,hotel,16.0627565,108.242083,Đà Nẵng
Arrive Apartment,hotel,16.0621868,108.2454565,Đà Nẵng
An House,hotel,16.0619012,108.2452014,Đà Nẵng
K House,hotel,16.0615602,108.2452591,Đà Nẵng
Ecogreen Boutique,hotel,16.0495831,108.2467755,Đà Nẵng
Samantha Apartment,hotel,16.0530106,108.2450894,Đà Nẵng
Sun Flower Apartment,hotel,16.0488443,108.2467801,Đà Nẵng
Calla Lily,hotel,16.0490512,108.2467206,Đà Nẵng
Pink Garden,hotel,16.0493539,108.2468532,Đà Nẵng
Charming,hotel,16.0556054,108.2435891,Đà Nẵng
Flower Beachstay,apartment,16.0535165,108.2405561,Đà Nẵng
Adaline,hotel,16.0351466,108.2514666,Đà Nẵng
Ritzy Boutique,hotel,16.0546988,108.2442688,Đà Nẵng
Platinum,hotel,16.0533644,108.2446517,Đà Nẵng
Coala,hotel,16.0494535,108.2468195,Đà Nẵng
Classic,hotel,16.0556203,108.2436414,Đà Nẵng
Sofia Suite,hotel,16.0549862,108.244181,Đà Nẵng
Thuc Thanh,hotel,16.0542202,108.2444428,Đà Nẵng
LIVIE,hotel,16.0498528,108.2458381,Đà Nẵng
Gold Time,hotel,16.0513804,108.2454781,Đà Nẵng
Saluton,hotel,16.0655723,108.2392644,Đà Nẵng
Bac Nam,hotel,16.0582833,108.2447647,Đà Nẵng
Yellow Apricot,hotel,16.0598468,108.2444625,Đà Nẵng
Ka Thy,apartment,16.058477,108.2429344,Đà Nẵng
Sun Flower,hotel,16.0628702,108.2433333,Đà Nẵng
White Sand,hotel,16.0628378,108.2423845,Đà Nẵng
Reveur,apartment,16.0643528,108.241528,Đà Nẵng
Hana,hotel,16.0651359,108.2416436,Đà Nẵng
Phuc Dong,apartment,16.0649909,108.2405242,Đà Nẵng
Lantana,hotel,16.0640016,108.2404203,Đà Nẵng
Q-beach,apartment,16.0558131,108.2441849,Đà Nẵng
Mangata,hotel,16.0788653,108.2457954,Đà Nẵng
Peninsula,hotel,16.0815678,108.2470677,Đà Nẵng
Sands,hotel,16.0859972,108.2481615,Đà Nẵng
Grand Gold,hotel,16.0938315,108.2514354,Đà Nẵng
Sontra Sea Hotel,hotel,16.0994475,108.2545649,Đà Nẵng
San Apartment,apartment,16.0652313,108.2404385,Đà Nẵng
Duy Tuan,apartment,16.0646836,108.2394561,Đà Nẵng
Temo House,hotel,16.0631699,108.2389372,Đà Nẵng
Andy,hotel,16.0618918,108.2383488,Đà Nẵng
Lee’s,apartment,16.0605038,108.2386328,Đà Nẵng
An Cu,apartment,16.0555647,108.2398856,Đà Nẵng
Sunny Beach,hotel,16.0505457,108.2453403,Đà Nẵng
Flower Hotel,hotel,16.0516896,108.2455943,Đà Nẵng
Blue-S,hotel,16.0514313,108.2456554,Đà Nẵng
May Beach,hotel,16.0518234,108.2460698,Đà Nẵng
The Sail,hotel,16.0516645,108.2464677,Đà Nẵng
Santa Luxury,hotel,16.0517038,108.2466046,Đà Nẵng
Cicilia,hotel,16.0520862,108.246746,Đà Nẵng
Golden Lotus Luxury,hotel,16.0522539,108.2467055,Đà Nẵng
Monalisa Luxury,hotel,16.0526876,108.2465521,Đà Nẵng
Thanh Tam,hotel,16.0635419,108.2400529,Đà Nẵng
Nice House,hotel,16.0635395,108.2396845,Đà Nẵng
Fun House,hotel,16.0636538,108.2399726,Đà Nẵng
King House,hotel,16.0637383,108.2399671,Đà Nẵng
Fairy Apartment,apartment,16.0640584,108.2395003,Đà Nẵng
Tony Apartment & Homestay,apartment,16.0645627,108.2394575,Đà Nẵng
SH Apartment,apartment,16.0648129,108.2397979,Đà Nẵng
My Son,hotel,16.0635601,108.2399744,Đà Nẵng
Win Win,motel,16.0611494,108.2393374,Đà Nẵng
Thai Van,motel,16.0611408,108.2391533,Đà Nẵng
Le Cap,hotel,16.0607908,108.239489,Đà Nẵng
Lucky Apartment,motel,16.0635035,108.2403185,Đà Nẵng
Oasis,hotel,16.0634944,108.2404459,Đà Nẵng
Lis Hotel,hotel,16.063583,108.2396831,Đà Nẵng
Tuti,hostel,16.0597015,108.2387669,Đà Nẵng
Fussa,apartment,16.0587845,108.2390702,Đà Nẵng
Thai Ba Thanh,apartment,16.0569401,108.2396574,Đà Nẵng
Euro Star,hotel,16.0564911,108.2319668,Đà Nẵng
Xenia,hotel,16.0565373,108.2313682,Đà Nẵng
Wink,hotel,16.0677078,108.2293505,Đà Nẵng
Legacy,hotel,16.0679019,108.2293022,Đà Nẵng
Seahorse,hostel,16.0678023,108.2246618,Đà Nẵng
H.Linh,hotel,16.0671563,108.2248192,Đà Nẵng
Haian,hotel,16.0661538,108.2244655,Đà Nẵng
Pariat,hotel,16.0653765,108.2241439,Đà Nẵng
Phu An,hotel,16.0576787,108.2222689,Đà Nẵng
Fivitel,hotel,16.0520127,108.2328752,Đà Nẵng
Luk Inn & Hostel,hotel,16.0489445,108.2463031,Đà Nẵng
Quốc Cường Center Hotel,hotel,16.057696,108.2169606,Đà Nẵng
Tehana Beach Hotel Da Nang,hotel,16.042831,108.2480327,Đà Nẵng
Precious Heritage Art Gallery Museum,museum,15.8771754,108.3342411,Đà Nẵng
Moonlight Hotel Suites & Spa,hotel,16.065119,108.2199896,Đà Nẵng
Moonlight Hotel Suites & Spa,hotel,16.0640178,108.2198533,Đà Nẵng
Dong Duong Hotel & Suites - Afternoon Tea Inclusive,hotel,16.0650385,108.2223568,Đà Nẵng
Leila House - DaNang Central - 3BRs - Free Airport Shuttle,guest_house,16.0582534,108.2162134,Đà Nẵng
Abogo Villa Pool Near Beach BBQ Free Da Nang,guest_house,16.0452231,108.2468264,Đà Nẵng
VernalHome Boutique DaNang,hotel,16.0404222,108.245577,Đà Nẵng
Golden lotus,hotel,16.0509684,108.2471195,Đà Nẵng
Gom House,hotel,16.0822855,108.2455556,Đà Nẵng
Century Hotel,hotel,16.0626108,108.2418096,Đà Nẵng
Secret garden,hostel,16.0652794,108.2241673,Đà Nẵng
Capsule hostel,hostel,16.0723736,108.2399822,Đà Nẵng
Roliva Hotel & Apartment,hotel,16.0717158,108.2348659,Đà Nẵng
TA Boutique Hotel,hotel,16.0483143,108.2421121,Đà Nẵng
Buddha,artwork,16.0044679,108.2639436,Đà Nẵng
Han Appartment,hotel,16.0658272,108.2310507,Đà Nẵng
Chill Palace Hotel,hotel,16.0674514,108.2444363,Đà Nẵng
Bong’s house homestay,guest_house,15.8733659,108.3317864,Đà Nẵng
Bong’s house homestay,guest_house,15.8750242,108.3255805,Đà Nẵng
Hung Dong coasters,artwork,15.8773637,108.3303026,Đà Nẵng
Hotel Rosa,hotel,16.0743494,108.2044562,Đà Nẵng
Chin Stays,hotel,16.0706016,108.2238868,Đà Nẵng
Thanh Hoang Chau hotel,hotel,16.0651724,108.2192072,Đà Nẵng
The Home hotel & apartment,hotel,16.0721125,108.2382472,Đà Nẵng
Marble Mountains Museum,museum,16.003907,108.2660314,Đà Nẵng
Beangrass Homestay,guest_house,15.884795,108.330616,Đà Nẵng
Wafaifo Resort,hotel,15.8838708,108.3267207,Đà Nẵng
Bãi Biển Sơn Trà,beach,16.099021,108.2549854,Đà Nẵng
Banana Homestay,guest_house,16.0784639,108.21915,Đà Nẵng
Centre Point Hotel and Residence,hotel,16.0766799,108.2174776,Đà Nẵng
Hoi An Garden Palace,hotel,15.8827562,108.3464593,Đà Nẵng
Khách Sận Kamala Hotel & Department,hotel,16.0685105,108.2440869,Đà Nẵng
Bananaflower Homestay,guest_house,16.0784393,108.2191541,Đà Nẵng
Sun Hotel,hotel,16.0393731,108.2470593,Đà Nẵng
Son Tra view,viewpoint,16.109214,108.2517721,Đà Nẵng
Small waterfall,viewpoint,16.1145234,108.2556163,Đà Nẵng
Gen Archery,attraction,16.0744763,108.2440764,Đà Nẵng
Tan Thanh Garden Homestay,guest_house,15.9086601,108.3474533,Đà Nẵng
Windy River Homestay,guest_house,15.8720153,108.3352037,Đà Nẵng
Doji Stars,hotel,16.0509803,108.2457063,Đà Nẵng
Bear,hostel,16.0629319,108.2435702,Đà Nẵng
Seaside,hotel,16.0627779,108.2433478,Đà Nẵng
Bao chau hotel,hotel,16.0547776,108.244621,Đà Nẵng
Sky star,hotel,16.0547382,108.244481,Đà Nẵng
7 wonders,attraction,16.0988101,108.2244144,Đà Nẵng
Nghe Home - Homestay Da Nang,hotel,16.0488836,108.2463256,Đà Nẵng
Palazzo 3,hotel,16.0493492,108.2473793,Đà Nẵng
Ton Motel,hotel,16.0492358,108.2474049,Đà Nẵng
Golden Lotus Apartment,apartment,16.0532775,108.2464319,Đà Nẵng
Taian Apartment,hotel,16.0501518,108.2468625,Đà Nẵng
Taiyo Hotel & Appartment,hotel,16.0503144,108.2468573,Đà Nẵng
B&M Apartment,hostel,16.0504651,108.2468069,Đà Nẵng
Viva,apartment,16.0505423,108.246781,Đà Nẵng
My Khe 2,hotel,16.0572936,108.2462048,Đà Nẵng
My Khe,hotel,16.0603836,108.2458465,Đà Nẵng
Coral Cove,hotel,16.0548038,108.2457339,Đà Nẵng
Alani Da Nang Hotel,hotel,16.0543887,108.2461266,Đà Nẵng
Dominica,hotel,16.0511358,108.2463029,Đà Nẵng
Menora Premium,hotel,16.0529181,108.2464931,Đà Nẵng
Villa LeNa,hotel,16.0583443,108.2451026,Đà Nẵng
Capecia Hotel&Apartment,hotel,16.052816,108.2460726,Đà Nẵng
Monalisa Hotel&Apartment,hotel,16.052763,108.2458868,Đà Nẵng
Sana,hotel,16.0525491,108.2458263,Đà Nẵng
Yến Vy Hotel & Apartment,hotel,16.0512665,108.2460516,Đà Nẵng
Bao Ahn,hotel,16.0518511,108.2461684,Đà Nẵng
Dongson,hotel,16.0481924,108.2416003,Đà Nẵng
Topaz,apartment,16.0485588,108.2429687,Đà Nẵng
Le Maison De Anh,hotel,16.0511199,108.2468165,Đà Nẵng
Golden Lotus,hotel,16.0508817,108.2469142,Đà Nẵng
TA Apartment,apartment,16.0509137,108.246654,Đà Nẵng
Dao Ngoc,hotel,16.0620888,108.2435965,Đà Nẵng
Celina,hotel,16.0554417,108.2451384,Đà Nẵng
Phoenix Hotel&Apartment,hotel,16.0525055,108.2449396,Đà Nẵng
Alida,apartment,16.0531718,108.2443017,Đà Nẵng
Sea Near Me,hotel,16.0552752,108.2451879,Đà Nẵng
Sen Boutique,hotel,16.055506,108.24532,Đà Nẵng
Trang Ngan,hotel,16.0553731,108.2455614,Đà Nẵng
Ronal,hotel,16.0555465,108.2454864,Đà Nẵng
Oseven,hotel,16.0544622,108.2453791,Đà Nẵng
Essenza,hotel,16.0505176,108.2460331,Đà Nẵng
Hi Coffe&Apartment,hotel,16.0507668,108.2457811,Đà Nẵng
The Light,hotel,16.0488177,108.248403,Đà Nẵng
Royal Charm,hotel,16.0492822,108.2479491,Đà Nẵng
Sofiana,hotel,16.0496633,108.2478286,Đà Nẵng
Silana,hotel,16.0494674,108.2478905,Đà Nẵng
Palazzo Luxury,hotel,16.0493692,108.2476482,Đà Nẵng
Harbor,hotel,16.0485125,108.2479136,Đà Nẵng
Angel Homestay,guest_house,16.050058,108.2466377,Đà Nẵng
Ruby Beach,guest_house,16.0507097,108.2458038,Đà Nẵng
Morri,guest_house,16.0512618,108.2460939,Đà Nẵng
Sweet Home,apartment,16.0490552,108.2474405,Đà Nẵng
Draco,hotel,16.04859,108.2473343,Đà Nẵng
Danang Beach Apartment,apartment,16.0497163,108.2453707,Đà Nẵng
Sen Boutique Villa,hotel,16.0492677,108.243691,Đà Nẵng
Non Residence,apartment,16.0486705,108.2435523,Đà Nẵng
Aloka Suite,apartment,16.0486776,108.2425885,Đà Nẵng
Moon,hotel,16.0485358,108.2422151,Đà Nẵng
Ba Dinh,apartment,16.0484039,108.2418993,Đà Nẵng
Sandy Bay 2,apartment,16.0474045,108.2439278,Đà Nẵng
Mike’s Place,apartment,16.0476813,108.2438305,Đà Nẵng
Sincero,hotel,16.0490867,108.2457665,Đà Nẵng
Sandy Bay,apartment,16.0489953,108.2408212,Đà Nẵng
Hero,apartment,16.0479756,108.2458597,Đà Nẵng
Sandy Bay,apartment,16.0489952,108.2408211,Đà Nẵng
Bong House Homestay 2 Hoi An,hotel,15.8750071,108.3246998,Đà Nẵng
Khoi Nguon,hotel,16.0565733,108.2081824,Đà Nẵng
Danang Beach 2,hotel,16.0503647,108.2460874,Đà Nẵng
Win Win,apartment,16.0499527,108.2447196,Đà Nẵng
Maris,apartment,16.0499095,108.2447339,Đà Nẵng
Gold Apartment,apartment,16.0496263,108.2449252,Đà Nẵng
Isabella Apartment,apartment,16.0495408,108.2447134,Đà Nẵng
TN Apartment,apartment,16.0487287,108.2428648,Đà Nẵng
Quang Nhat,hotel,16.0487051,108.2428054,Đà Nẵng
Green Garden Residence,apartment,16.048373,108.2432305,Đà Nẵng
TV’s hotel & appartment,hotel,16.0469086,108.242183,Đà Nẵng
Rio,apartment,16.0476619,108.2431959,Đà Nẵng
My An Suites,hotel,16.0484722,108.2438895,Đà Nẵng
Alabasta,hotel,16.0487665,108.2449317,Đà Nẵng
Hummer,hotel,16.0521524,108.2463283,Đà Nẵng
Sea Light,hotel,16.0520699,108.2453125,Đà Nẵng
Sweden Hotel&Apartment,hotel,16.0521537,108.2455486,Đà Nẵng
Mama Hotel&Apartment,hotel,16.0519591,108.2455553,Đà Nẵng
Cantona,hotel,16.0522349,108.2458597,Đà Nẵng
Sea Swan,apartment,16.0521233,108.2460193,Đà Nẵng
Jolia,hotel,16.0521457,108.2461048,Đà Nẵng
Flamingo,apartment,16.0527182,108.2451556,Đà Nẵng
Hung Thinh,apartment,16.0527826,108.2451368,Đà Nẵng
Nguyen Homestay,apartment,16.0528999,108.2451235,Đà Nẵng
Pura Vida,hotel,16.0532529,108.2446875,Đà Nẵng
Lagoon Boutique,hotel,16.0520112,108.2442468,Đà Nẵng
Misa,hotel,16.0520009,108.244169,Đà Nẵng
Kiwi,hotel,16.0523566,108.2444882,Đà Nẵng
The Stay,apartment,16.0492933,108.2466344,Đà Nẵng
Happy Apartment,apartment,16.049225,108.2468906,Đà Nẵng
Phamily Residence,apartment,16.0491322,108.2466867,Đà Nẵng
Regal,hotel,16.0622293,108.2379194,Đà Nẵng
Silla,apartment,16.0398975,108.2461626,Đà Nẵng
Zones,hotel,16.045235,108.2409426,Đà Nẵng
Gold Coast,hotel,16.0392199,108.2446274,Đà Nẵng
Le Indochina,hotel,16.0404767,108.2473089,Đà Nẵng
Louis Mo,apartment,16.053018,108.2457045,Đà Nẵng
Peaceful,hostel,16.0530425,108.2457568,Đà Nẵng
The Pacific,apartment,16.0530606,108.2457876,Đà Nẵng
The Nevis,apartment,16.0530838,108.2459231,Đà Nẵng
Urchin,apartment,16.040715,108.2478502,Đà Nẵng
Salmalia,hotel,16.0608562,108.2454087,Đà Nẵng
Titan,hotel,16.039633,108.2466084,Đà Nẵng
L’Amore,hotel,16.0431603,108.2478601,Đà Nẵng
Teu,apartment,16.0462259,108.245035,Đà Nẵng
Seven Sea,hotel,16.0752707,108.2448099,Đà Nẵng
Radisson Red,hotel,16.0808684,108.2468217,Đà Nẵng
Mandila Beach,hotel,16.0674704,108.2449031,Đà Nẵng
Chicland,hotel,16.0680937,108.2448828,Đà Nẵng
Nalod,hotel,16.0719772,108.2447943,Đà Nẵng
Sel De Met,hotel,16.080617,108.2466841,Đà Nẵng
Awaken,hotel,16.0757347,108.2448463,Đà Nẵng
Seavitel,hotel,16.0750062,108.2447684,Đà Nẵng
An Home,apartment,16.0516177,108.2436687,Đà Nẵng
Dubai Hotel,hotel,16.0518677,108.2433656,Đà Nẵng
Danang Beach Apartment,apartment,16.0526229,108.2439047,Đà Nẵng
Mari Apartment,apartment,16.0517091,108.2441128,Đà Nẵng
The Now Boutique Hotel,hotel,16.0490527,108.2390398,Đà Nẵng
Nhà Khách Quân Chủng Phòng Không- Không Quân,hotel,16.0516072,108.2059173,Đà Nẵng
Avenis,hotel,16.0780343,108.1725076,Đà Nẵng
Sol Beach Resort & Spa,hotel,15.9099377,108.3449207,Đà Nẵng
Bãi Đá,beach,16.0988527,108.3012745,Đà Nẵng
Vaia Hoi An Boutique Hotel,hotel,15.8793093,108.3363012,Đà Nẵng
Gió Chiều Homestay - Hội An,guest_house,15.8692925,108.3189641,Đà Nẵng
"Gold Stone Homestay, Hoi An",guest_house,15.8749974,108.3242825,Đà Nẵng
AIRA Boutique Hoi An Hotels & Villa,hotel,15.9137121,108.3389429,Đà Nẵng
Mini-Golf Hoi An,theme_park,15.912947,108.3386895,Đà Nẵng
Ibiza hotel,hotel,16.0777916,108.2289308,Đà Nẵng
Than Binh Central hotel,hotel,15.8807161,108.3260087,Đà Nẵng
Louis luxury apartments,hotel,16.0470752,108.222153,Đà Nẵng
Hometown Bamboo Prime Villa,hotel,16.1054366,108.2601685,Đà Nẵng
Nhà Trưng bày Hoàng Sa,museum,16.0935205,108.2512559,Đà Nẵng
Sailor's Home,apartment,16.0637843,108.2329443,Đà Nẵng
Mai River House,hotel,16.0661578,108.2297041,Đà Nẵng
Is Lam Hotel,apartment,16.0655211,108.229982,Đà Nẵng
Hoi An Memories Land,theme_park,15.875074,108.3398475,Đà Nẵng
Cầu An Hội,attraction,15.8764915,108.3264631,Đà Nẵng
Chợ vải Hội An,attraction,15.8770764,108.3325201,Đà Nẵng
Chùa Cầu,attraction,15.8771163,108.3260098,Đà Nẵng
Pullman Beach Resort,hotel,16.0409022,108.2506327,Đà Nẵng
Doan 27 Da Nang,hotel,16.0557323,108.2464593,Đà Nẵng
Four Seasons Resort,hotel,15.9294484,108.3175338,Đà Nẵng
Crowne Plaza Danang,hotel,16.0273564,108.2568824,Đà Nẵng
Tia Wellness Resort,hotel,16.0311818,108.2552016,Đà Nẵng
Hyatt Regency Resort and Spa,hotel,16.0126126,108.2637436,Đà Nẵng
Olalani Resort & Condotel,hotel,16.0297701,108.2558011,Đà Nẵng
Danang Marriott Resort & Spa,hotel,16.007772,108.2660623,Đà Nẵng
Chợ Cồn,attraction,16.0681703,108.2145338,Đà Nẵng
Glory Hotel,hotel,15.8804114,108.3386203,Đà Nẵng
Nam Ngai Hotel,hotel,15.882358,108.3247928,Đà Nẵng
Lucky House Hotel,hotel,15.8824482,108.3247391,Đà Nẵng
Long Life Hotel,hotel,15.8823935,108.3242733,Đà Nẵng
Retreat,hostel,15.8770783,108.3216493,Đà Nẵng
Ivy Hotel,hotel,15.8768929,108.3226265,Đà Nẵng
Novotel,hotel,16.0773703,108.2235639,Đà Nẵng
Bảo tàng Đà Nẵng,museum,16.0763269,108.221568,Đà Nẵng
Khách sạn Green Plaza,hotel,16.0634704,108.2236971,Đà Nẵng
Bảo tàng Nghệ thuật Điêu khắc Chăm Đà Nẵng,museum,16.0601964,108.223168,Đà Nẵng
Bảo tàng Hồ Chí Minh,museum,16.0464711,108.2182667,Đà Nẵng
Sun World Bà Nà Hills,theme_park,15.9956307,107.9897217,Đà Nẵng
InterContinental Danang Sun Peninsula Resort,hotel,16.1211058,108.3063202,Đà Nẵng
Quan Âm,artwork,16.0996857,108.2770161,Đà Nẵng
Bonsai Homestay,hotel,15.872032,108.3308014,Đà Nẵng
Hội quán Triều Châu,attraction,15.8779064,108.3330332,Đà Nẵng
Hải Vân Quan,attraction,16.1877471,108.1312899,Đà Nẵng
Furama Resort,hotel,16.0397373,108.2513983,Đà Nẵng
Furama Villas,hotel,16.0368971,108.2523434,Đà Nẵng
Gió Biển 2,hotel,16.0565659,108.2457965,Đà Nẵng
Meliá Danang Beach Resort,hotel,16.0007837,108.2693892,Đà Nẵng
"Danang Marriott Resort & Spa, Non Nuoc Beach Villas",hotel,15.9946289,108.2708655,Đà Nẵng
Pulchra Resort Da Nang,hotel,15.9889626,108.274252,Đà Nẵng
Le Belhamy Hoi An Resort & Spa,hotel,15.9235756,108.3242582,Đà Nẵng
Khách Sạn Phú Lộc Phát,hotel,16.0760366,108.1768081,Đà Nẵng
Casuarina Hoi An,hotel,15.9309098,108.3010984,Đà Nẵng
Sheraton Grand Danang Resort & Spa,hotel,15.9811663,108.2785281,Đà Nẵng
The Ocean Resort,hotel,15.9760622,108.2814589,Đà Nẵng
Bel Marina Hoi An Resort,hotel,15.8743404,108.3223079,Đà Nẵng
Bamboo homestay,guest_house,15.883132,108.3487843,Đà Nẵng
Stay Hotel,hotel,16.0858173,108.217884,Đà Nẵng
The House 36 Homestay,guest_house,15.8756098,108.3203992,Đà Nẵng
Calla Villa Hoi An,hotel,15.8766759,108.3211848,Đà Nẵng
River Suites Hoi An,hotel,15.8766616,108.3225638,Đà Nẵng
Yzistel Hoi An,hotel,15.8799944,108.3234165,Đà Nẵng
Đình Cẩm Phô,attraction,15.8782936,108.3241832,Đà Nẵng
Hội Quán Quảng Triệu,attraction,15.8773646,108.3265656,Đà Nẵng
KS LITTLE CENTRAL,hotel,15.8795826,108.3193174,Đà Nẵng
Villa Calla,hotel,15.8770315,108.3214033,Đà Nẵng
Savanna Hoi An Villas,hotel,15.8911673,108.345085,Đà Nẵng
Venus,hotel,15.8802122,108.3176246,Đà Nẵng
Hoi An Museum,museum,15.8803099,108.3294674,Đà Nẵng
A La Carte Danang Beach,hotel,16.0687354,108.2446388,Đà Nẵng
Belle Maison Parosand Hotel,hotel,16.0674697,108.2448548,Đà Nẵng
Corner Riverside,hotel,15.8770239,108.3170623,Đà Nẵng
Zery Villa,guest_house,15.8815877,108.3191978,Đà Nẵng
Tan Ky,museum,15.8764553,108.3278311,Đà Nẵng
La Charm Hoi An Hotel & Spa,hotel,15.8771354,108.3200908,Đà Nẵng
Hùng Đông về và bạn tránh,gallery,15.8774451,108.3303659,Đà Nẵng
Yarra Ocean Suites Danang,hotel,16.0489036,108.2486799,Đà Nẵng
Grand Tourane Hotel,hotel,16.061754,108.2458241,Đà Nẵng
Quan Công Miếu,attraction,15.8775404,108.3313895,Đà Nẵng
Hilton Da Nang,hotel,16.0725924,108.2244044,Đà Nẵng
Da Nang Downtown,theme_park,16.0412084,108.2271492,Đà Nẵng
Hoi An Dream City Hotel,hotel,15.8830778,108.3269174,Đà Nẵng
Cầu Vàng,attraction,15.9949242,107.9962304,Đà Nẵng
Serene Hotel,hotel,16.053408,108.2474346,Đà Nẵng
Rosamia Hotel,hotel,16.0526466,108.2476882,Đà Nẵng
Haian Beach Hotel & Spa,hotel,16.053048,108.247534,Đà Nẵng
Mường Thanh Đà Nẵng,hotel,16.053717,108.2473363,Đà Nẵng
The Legend Hotel,hotel,16.06817,108.2434121,Đà Nẵng
Pavilion Hotel,hotel,16.0632964,108.2442152,Đà Nẵng
DLG Hotel,hotel,16.0579424,108.2461126,Đà Nẵng
Four Points by Sheraton Danang,hotel,16.0779034,108.2452038,Đà Nẵng
Monarque Hotel,hotel,16.0660958,108.2448861,Đà Nẵng
Sea Front,hotel,16.0659673,108.2448876,Đà Nẵng
Lunar,hotel,16.0658295,108.2448931,Đà Nẵng
Phuc Long,hotel,16.0656966,108.2449038,Đà Nẵng
Sekong Hotel,hotel,16.0747224,108.2446619,Đà Nẵng
Paracel Hotel,hotel,16.0684265,108.2447418,Đà Nẵng
Dang's Hotel,hotel,16.062999,108.2315627,Đà Nẵng
Sunshine Hotel,hotel,16.0543992,108.2340148,Đà Nẵng
Fivitel King,hotel,16.055243,108.2418994,Đà Nẵng
SOCO Hotel,hotel,16.0560198,108.2446106,Đà Nẵng
Huỳnh Gia Hưng Hotel,hotel,16.0551407,108.241702,Đà Nẵng
Mercy Emerald,hotel,16.0557895,108.2453896,Đà Nẵng
Richico Apartments & Hotel,hotel,16.0557547,108.2452706,Đà Nẵng
Minh Toan Galaxy Hotel,hotel,16.0440706,108.2226201,Đà Nẵng
Brown Bean Hotel,hotel,16.0385512,108.2233794,Đà Nẵng
Fortune Hotel,hotel,16.0390132,108.223326,Đà Nẵng
Terra boutique hotel,hotel,16.0545911,108.2448629,Đà Nẵng
Pham Thanh Apartment,apartment,16.0531897,108.2447665,Đà Nẵng
Hanami Hotel DaNang,hotel,16.0486758,108.242447,Đà Nẵng
Fansipan Hotel,hotel,16.0415754,108.2483774,Đà Nẵng
Nhà nghỉ 126,guest_house,16.0659426,108.1996534,Đà Nẵng
Thanh Long Hotel,hotel,16.0659572,108.1991292,Đà Nẵng
Satya Hotel,hotel,16.0670701,108.2239631,Đà Nẵng
Luxury Hotel,hotel,16.0652434,108.2237897,Đà Nẵng
Cầu Rồng,attraction,16.0611683,108.2278981,Đà Nẵng
Tuyên Sơn,hotel,16.0325717,108.2257285,Đà Nẵng
Tehana,hotel,16.0427276,108.2479052,Đà Nẵng
Lavencos,hotel,16.043693,108.2475135,Đà Nẵng
Eden Hotel,hotel,16.0509701,108.2481284,Đà Nẵng
Balcona Hotel,hotel,16.0515496,108.2479742,Đà Nẵng
My House Homestay,hotel,15.8826667,108.3310446,Đà Nẵng
Courtyard Danang Han River,hotel,16.0721989,108.2244418,Đà Nẵng
Vanda,hotel,16.0606539,108.2225133,Đà Nẵng
Dana Marina,hotel,16.0631466,108.2437009,Đà Nẵng
Adaline Hotel & Suites,hotel,16.0631729,108.24379,Đà Nẵng
Royal Ocean,hotel,16.0632206,108.2438951,Đà Nẵng
Kova Diamond,hotel,16.063352,108.2444128,Đà Nẵng
Stella Maris Beach,hotel,16.063488,108.2449325,Đà Nẵng
Thanh Tuyet Son,hotel,16.0633452,108.2449783,Đà Nẵng
J-Bay,hotel,16.0629675,108.2450785,Đà Nẵng
Sala Danang Beach Hotel,hotel,16.0621113,108.2451665,Đà Nẵng
Meliá Vinpearl Danang Riverfront,hotel,16.0710353,108.2294586,Đà Nẵng
Laluna Hoi An Riverside Hotel & Spa,hotel,15.8764595,108.3216802,Đà Nẵng
Square Villa Hoi An,hotel,15.8766457,108.3214261,Đà Nẵng
Thanh Binh Riverside Hotel,hotel,15.8766571,108.3221361,Đà Nẵng
Mikazuki Đà Nẵng Hotel,hotel,16.0935848,108.1443569,Đà Nẵng
The Ocean Estates,hotel,15.9795472,108.2791001,Đà Nẵng
The Ocean Suites,apartment,15.9740863,108.2805259,Đà Nẵng
Shilla Monogram,hotel,15.9635343,108.2893873,Đà Nẵng
Hoi An Historic Hotel,hotel,15.880508,108.3305172,Đà Nẵng
Menora Grand Hotel,hotel,16.0533423,108.2461344,Đà Nẵng
Avatar,hotel,16.0494999,108.2470182,Đà Nẵng
TMS Hotel Da Nang Beach,hotel,16.051152,108.2480701,Đà Nẵng
Đảo Ngọc Hotel,hotel,16.0515374,108.2467947,Đà Nẵng
Nhật Minh Hotel & Apartment,hotel,16.0515739,108.2469282,Đà Nẵng
Amunra Ocean Hotel,hotel,16.0514998,108.2466576,Đà Nẵng
Aria Grand,hotel,16.0520663,108.2444586,Đà Nẵng
Delicate Hotel,hotel,16.0530618,108.246249,Đà Nẵng
Tamarind Hotel Da Nang,hotel,16.0506778,108.2475893,Đà Nẵng
Sea Queen,hotel,16.0509049,108.2455049,Đà Nẵng
Charming Beauty,hotel,16.048465,108.2471503,Đà Nẵng
Grand Sunrise Boutique,hotel,16.054271,108.2446117,Đà Nẵng
Royal Lotus Hotel,hotel,16.0546248,108.2434272,Đà Nẵng
Khách sạn HaNoi Blue,hotel,16.0555767,108.2446616,Đà Nẵng
Golden star hotel,hotel,16.0544811,108.2445561,Đà Nẵng
Davue,hotel,16.0536005,108.2460693,Đà Nẵng
Grand Ocean,hotel,16.0549336,108.2449047,Đà Nẵng
PAMA Boutique Hotel & Bistro,hotel,16.0551388,108.2457846,Đà Nẵng
Cozy Danang Boutique Hotel,hotel,16.0615571,108.2218356,Đà Nẵng
Chợ Đêm Sơn Trà,attraction,16.062009,108.2320155,Đà Nẵng
Everland Hotel,hotel,16.0713229,108.2373922,Đà Nẵng
Minh Toan Safi Ocean,hotel,16.0670601,108.244862,Đà Nẵng
Dragon sea,hotel,16.0654829,108.2443476,Đà Nẵng
Diamond Sea,hotel,16.0665111,108.2448813,Đà Nẵng
Blue Sun,hotel,16.0666474,108.2448797,Đà Nẵng
Maximilan,hotel,16.0672057,108.2448582,Đà Nẵng
The Shann,hotel,16.0655487,108.2442808,Đà Nẵng
Canvas,hotel,16.0663748,108.2448829,Đà Nẵng
Sen Tai Thu,hotel,16.0669223,108.2448654,Đà Nẵng
Paris Deli Danang Beach Hotel,hotel,16.0662381,108.2448845,Đà Nẵng
Pergola design hotel,hotel,16.0660264,108.2436735,Đà Nẵng
Bamboo Green,hotel,16.0669243,108.2240932,Đà Nẵng
Adina Hotel,hotel,16.0709841,108.2367545,Đà Nẵng
No Sqooters,information,16.1198555,108.2485712,Đà Nẵng
Phước Mỹ An,hotel,16.0640518,108.2426191,Đà Nẵng
Cầu An Hội,attraction,15.8763674,108.3264461,Đà Nẵng
Cầu An Hội,attraction,15.8762329,108.3264276,Đà Nẵng
Khách sạn Estrella,hotel,16.054924,108.2409394,Đà Nẵng
Roxana River Villa,hotel,15.8757507,108.3447779,Đà Nẵng
M Hotel Da Nang,hotel,16.0517939,108.2479104,Đà Nẵng
Risemount Premier Resort,hotel,16.054566,108.2420772,Đà Nẵng
Goldenline Hotel Đà Nẵng,hotel,16.0534682,108.2460938,Đà Nẵng
Sea Wind Hotel,hotel,16.0557159,108.245588,Đà Nẵng
Nesta hotel,hotel,16.0541286,108.2469595,Đà Nẵng
Toan Thang Hotel,hotel,16.0558165,108.2454825,Đà Nẵng
Ruby Star,hotel,16.0556578,108.2449395,Đà Nẵng
Delicate,hotel,16.0633768,108.244501,Đà Nẵng
Sunny Ocean Hotel,hotel,16.0552293,108.2457543,Đà Nẵng
Haya,hotel,16.0547642,108.2454862,Đà Nẵng
Valencia,hotel,16.0549934,108.2450731,Đà Nẵng
Golden Lotus Grand,hotel,16.0500863,108.2454445,Đà Nẵng
Khách sạn G8 Luxury,hotel,16.0707694,108.2172859,Đà Nẵng
Rêu Boutique Hotel,hotel,15.887627,108.3353379,Đà Nẵng
Bảo tàng Đà Nẵng mới,museum,16.0748254,108.2240263,Đà Nẵng
Ocean Heaven,hotel,16.0654324,108.2435029,Đà Nẵng
Nagila,hotel,16.0713972,108.2358254,Đà Nẵng
Bantique,hotel,16.071709,108.2350921,Đà Nẵng
Hadana,hotel,16.0715257,108.2355244,Đà Nẵng
Nature Hotel&SPA,hotel,16.0719155,108.2346316,Đà Nẵng
Buddha,artwork,15.9970211,107.9943784,Đà Nẵng
Hometown Bamboo Prime Villa,hotel,16.1054118,108.2601733,Đà Nẵng
Ngũ Hành Sơn,attraction,16.0017096,108.2596132,Đà Nẵng
