name,kind,lat,lon,province/city
Bach Dang Hotel,hotel,20.8618088,106.6862823,Quảng Ninh
Phương Linh,hotel,20.7247477,107.0519917,Quảng Ninh
Princes Hotel,hotel,20.7242639,107.0507878,Quảng Ninh
Nhị Anh,hotel,20.724812,107.0525497,Quảng Ninh
Đinh Ngự Lâm,peak,20.7934251,106.9989474,Quảng Ninh
Động Mê Cung,cave_entrance,20.8341057,107.0845764,Quảng Ninh
Quang Minh,hotel,20.7242388,107.0506926,Quảng Ninh
Hùng Anh,hotel,20.7251373,107.0532764,Quảng Ninh
Sunflower Two,hotel,20.7260102,107.0532507,Quảng Ninh
Nam Phương 1,hotel,20.7249982,107.0497553,Quảng Ninh
Lan Ha,hotel,20.7254176,107.0498782,Quảng Ninh
Cat Ba Dream,hotel,20.7241244,107.050041,Quảng Ninh
Sunflower One,hotel,20.7243638,107.0504589,Quảng Ninh
Thang Long Hotel,hotel,20.7241526,107.050033,Quảng Ninh
Tuan Ha,hotel,20.7251708,107.0497593,Quảng Ninh
Sông Chanh II,hotel,20.7258638,107.050861,Quảng Ninh
Dung Hà,hotel,20.7252071,107.0498104,Quảng Ninh
Yen Thanh,hotel,20.724949,107.0494944,Quảng Ninh
Đảo Xanh,hotel,20.7322923,107.058729,Quảng Ninh
Trường Giang,hotel,20.7242749,107.0508444,Quảng Ninh
Huy Hoàng,hotel,20.7242515,107.050736,Quảng Ninh
Sun & Sea Hotel,hotel,20.725563,107.0504728,Quảng Ninh
vien duong hotel,hotel,20.7252271,107.0500357,Quảng Ninh
Draco QK3 Hotel,hotel,20.7216172,107.0513378,Quảng Ninh
Nam Duong Hotel,hotel,20.7232921,107.0504665,Quảng Ninh
Hoàng Hiếu Hotel,hotel,20.7253972,107.0498601,Quảng Ninh
Ha Long Pearl,hotel,20.9515064,107.041204,Quảng Ninh
BMC Thăng Long Hotel,hotel,20.9483048,107.0289488,Quảng Ninh
Floating Village,attraction,20.9027194,107.0181373,Quảng Ninh
Nhang Hi Hotel,hotel,20.9496358,107.0297089,Quảng Ninh
1300/4,boundary_stone,21.59946,107.3628429,Quảng Ninh
1300,boundary_stone,21.6067958,107.3570621,Quảng Ninh
Khu 359 (Mai Quyền II),guest_house,21.1140496,107.4935822,Quảng Ninh
Thành Liễu,hotel,20.943752,107.5481683,Quảng Ninh
Ngân Hà,hotel,20.8761933,107.4927834,Quảng Ninh
Hông Ngoc,hotel,21.0600727,107.4290092,Quảng Ninh
Lâm Tâm,hotel,21.0612291,107.429433,Quảng Ninh
The Whisper of Nature,hotel,20.8039954,107.0405871,Quảng Ninh
Cho Cat Ba,attraction,20.7274511,107.0469791,Quảng Ninh
Monkey Island Resort,hotel,20.7293037,107.078449,Quảng Ninh
Hoàng Hải Hotel,hotel,20.8542692,106.6836151,Quảng Ninh
Duyen Hai Hotel,hotel,20.8632774,106.6808243,Quảng Ninh
Huu Nghi Hotel,hotel,20.8617773,106.6843035,Quảng Ninh
Bảo Anh Hotel,hotel,20.8607974,106.6850541,Quảng Ninh
Hoàng Long Hotel,hotel,20.8597888,106.6816893,Quảng Ninh
Kim Thành Hotel,hotel,20.8615146,106.6839369,Quảng Ninh
Monaco Hotel,hotel,20.86144,106.6827137,Quảng Ninh
Bảo Anh Hotel,hotel,20.8562259,106.6783871,Quảng Ninh
Lasvegas,hotel,20.8344756,106.6923905,Quảng Ninh
An Đào Hotel,hotel,20.8418237,106.699601,Quảng Ninh
NHÀ NGHỈ MÙA THU,chalet,20.8296287,106.7185956,Quảng Ninh
Nhà nghỉ Thu Hiền,chalet,20.8299013,106.701111,Quảng Ninh
Phúc Đại Lợi Hotel,hotel,20.8501851,106.6749039,Quảng Ninh
Trọng Khách,hotel,20.8552127,106.6782701,Quảng Ninh
Hotel level,hotel,20.8447979,106.6924822,Quảng Ninh
Thành Công,hotel,20.8339609,106.6965385,Quảng Ninh
rex hotel,hostel,20.8340181,106.6783366,Quảng Ninh
Nhà Ngỉ Thanh Nhàn,motel,20.8308458,106.691642,Quảng Ninh
Nhà nghỉ,hotel,20.8341476,106.690014,Quảng Ninh
Tường Vi,hotel,20.8321959,106.7026976,Quảng Ninh
Nhà Ngỉ Bình Vân,motel,20.8305577,106.6886875,Quảng Ninh
Nhà Ngỉ Linh Huyền,motel,20.8311705,106.6881165,Quảng Ninh
Nhà Ngỉ Nam Hương 879 Thiên Lôi,motel,20.8299131,106.6903462,Quảng Ninh
Nhà Ngỉ Thanh Nhàn,motel,20.8297731,106.6908694,Quảng Ninh
Nhà Ngỉ Đình Vũ 3,motel,20.8299424,106.6916265,Quảng Ninh
Nhà Ngỉ Duy Khánh,motel,20.8316155,106.6871343,Quảng Ninh
Nhà ngỉ Phương Hồng,motel,20.8314685,106.6874571,Quảng Ninh
City view,hotel,20.8947893,106.6726095,Quảng Ninh
Camela Hotel& Resort,hotel,20.8775842,106.6375002,Quảng Ninh
Công viên,theme_park,20.8028126,106.6267357,Quảng Ninh
Cửa hàng giấy dán tường hoa Việt Hàn,information,20.842289,106.70392,Quảng Ninh
Khách sạn Camela,hotel,20.8760299,106.6435253,Quảng Ninh
Khách sạn Hải Phòng,hotel,20.8317409,106.7027211,Quảng Ninh
Khách sạn Kim An,hotel,20.813943,106.6241466,Quảng Ninh
Khách sạn Việt Trung,hotel,20.8467624,106.7155214,Quảng Ninh
Monte Carlo Hai Phong Hotel,hotel,20.8454883,106.7121562,Quảng Ninh
Tray Hotel,hotel,20.8493072,106.6898417,Quảng Ninh
Monaco Hotel,hotel,20.8456039,106.7124109,Quảng Ninh
Paramount Hotel,hotel,20.8457192,106.7127939,Quảng Ninh
Tượng đài Nữ tướng Lê Chân,memorial,20.8559981,106.6795685,Quảng Ninh
Chùa An Dương,castle,20.8476845,106.6654074,Quảng Ninh
Đền thờ Bác Hồ,castle,20.8578974,106.6505485,Quảng Ninh
Pearl River Hotel,hotel,20.8166474,106.6980538,Quảng Ninh
Hailong Hotel,hotel,20.7231574,107.0505139,Quảng Ninh
Động Minh Châu,cave_entrance,20.7534299,107.0124942,Quảng Ninh
Vịnh Hạ Long,attraction,20.9084384,107.0682782,Quảng Ninh
Dinh vua Bảo Đại,attraction,20.687659,106.792966,Quảng Ninh
Hang Luồn Cave Entrance,attraction,20.8531631,107.0947761,Quảng Ninh
Phuong Mai Family Hotel,hotel,20.7255221,107.0482057,Quảng Ninh
Artillery Marker Viewpoint,viewpoint,20.7231654,107.0524288,Quảng Ninh
Quyet Nhung Hotel,guest_house,21.3550957,107.5903691,Quảng Ninh
Viet Trung Hotel,hotel,21.0015977,107.2684128,Quảng Ninh
Van Hoa Hotel,hotel,20.9585017,107.0195774,Quảng Ninh
Sea View Hotel,hotel,20.7249088,107.0494246,Quảng Ninh
Thu Luyen hotel (Nhà Nghỉ Thu Luyến),hotel,21.333853,106.8500141,Quảng Ninh
Hotel,hotel,21.323811,106.8167188,Quảng Ninh
Hotel,hotel,21.3906556,106.7590082,Quảng Ninh
Halong Plaza Hotel,hotel,20.9602376,107.0608645,Quảng Ninh
Động Hoa Cương,cave_entrance,20.8382771,106.9842347,Quảng Ninh
Hang Dinh,cave_entrance,20.8614231,106.9465981,Quảng Ninh
Hang Bồ Nâu,cave_entrance,20.850515,107.0888625,Quảng Ninh
Hang Sửng Sốt,cave_entrance,20.8439972,107.091255,Quảng Ninh
Núi Cao Vọng,peak,20.8398363,107.0065981,Quảng Ninh
Dong Thien Long,cave_entrance,20.8346326,106.9387017,Quảng Ninh
Houng Bien Hotel,hotel,20.9237493,106.9891783,Quảng Ninh
guesthouse,guest_house,20.7637986,107.0274568,Quảng Ninh
Trần Quốc Tảng,artwork,21.0259924,107.3690833,Quảng Ninh
Nhà cụ Nguyễn Sơn Hà,yes,20.8489988,106.6902143,Quảng Ninh
Hội Liên Hiệp Văn Học Nghệ Thuật Hải Phòng,gallery,20.8577421,106.6837446,Quảng Ninh
Cat Ba Guest House,guest_house,20.7248336,107.0530669,Quảng Ninh
Long Ha Nha Nghi,guest_house,20.950549,107.0828851,Quảng Ninh
Ngoc Ngoan,guest_house,21.0685494,107.4210479,Quảng Ninh
Van Nam,hotel,20.9575465,107.0502152,Quảng Ninh
little cat ba,hotel,20.7399027,107.0426875,Quảng Ninh
East Observatory,viewpoint,20.7237462,107.0550795,Quảng Ninh
Skall Cave,cave_entrance,20.8355538,107.1070773,Quảng Ninh
Hang Nic,cave_entrance,20.8349833,107.1078833,Quảng Ninh
Hang Trinh Nủ,cave_entrance,20.8344798,107.1085606,Quảng Ninh
Khách sạn Thăng Long,hotel,21.0343474,106.7876588,Quảng Ninh
Nam Cat Resort,hotel,20.7563039,107.0575644,Quảng Ninh
Dong Duong Hotel,hotel,20.8505339,106.6806593,Quảng Ninh
Catba Central Hotel II,hotel,20.7270299,107.0437802,Quảng Ninh
Woodstock Beach Camp,hotel,20.7501788,106.9977479,Quảng Ninh
Cat Ba Mountain View Guesthouse,hostel,20.7385094,107.0322535,Quảng Ninh
Thu tiền điện PG,viewpoint,20.8473144,106.6534584,Quảng Ninh
Hương Cảng,hotel,20.6831313,106.8017622,Quảng Ninh
hôtel,hotel,20.7248377,107.0523777,Quảng Ninh
Vinpearl Ha Long resort,hotel,20.941167,107.0253612,Quảng Ninh
Cat Ba Lingur Hostel 2,hostel,20.7267529,107.0521941,Quảng Ninh
Núi Bài Thơ,peak,20.9483211,107.0782931,Quảng Ninh
nhà ngỉ thành luân,motel,21.4542436,107.7435738,Quảng Ninh
nhà nghỉ thành luân,motel,21.4599193,107.7006066,Quảng Ninh
Le Ahn Hotel,guest_house,21.059854,107.428268,Quảng Ninh
Công viên Thuỷ Sơn Vĩnh Hằng,monument,20.9287774,106.6656192,Quảng Ninh
Hang Quân Y,cave_entrance,20.7700933,107.0207376,Quảng Ninh
Thuy Tuan,guest_house,20.8743445,107.4926253,Quảng Ninh
West Observatory Site,viewpoint,20.7229974,107.0530753,Quảng Ninh
Anti Aircraft Artillery Site,yes,20.7229874,107.0533744,Quảng Ninh
Cannon Number 1,cannon,20.7231047,107.0528329,Quảng Ninh
Historical Objects Showroom,museum,20.723417,107.0539021,Quảng Ninh
Ammunition Showroom,yes,20.7234023,107.0546887,Quảng Ninh
Phong Lan,hotel,20.7251321,107.0490692,Quảng Ninh
National Park station & Bay Management staton,attraction,20.8062637,107.100422,Quảng Ninh
Đồi Thiên Văn,peak,20.8058209,106.6301714,Quảng Ninh
Van boi trong,attraction,20.7601166,107.0784292,Quảng Ninh
Đinh Thường-90 Lê Lương,viewpoint,21.3515478,107.5967996,Quảng Ninh
Cat ba Garden House,hotel,20.7270647,107.0517659,Quảng Ninh
Castway island,hostel,20.7611156,107.0638045,Quảng Ninh
Khe Nà,peak,21.233932,107.1712997,Quảng Ninh
Núi Cao Ba Lanh,peak,21.5763792,107.5747231,Quảng Ninh
Núi Cao Xiêm,peak,21.5202772,107.4883387,Quảng Ninh
Núi Quảng Nam Châu,peak,21.5664165,107.6111483,Quảng Ninh
Núi Khe Buông,peak,21.4269285,107.0995321,Quảng Ninh
Luon Cave,attraction,20.8512136,107.0963448,Quảng Ninh
Phat dat,motel,20.9831651,106.9157374,Quảng Ninh
Phạm Minh Tuấn,information,21.0681288,107.4224462,Quảng Ninh
Bai Tu Long Bay,attraction,20.9260645,107.2552099,Quảng Ninh
Cửa Vạn,attraction,20.8072422,107.1179445,Quảng Ninh
Động Thiên Cung,cave_entrance,20.9126814,107.0172114,Quảng Ninh
Hang Đầu Gỗ,cave_entrance,20.9112131,107.0186598,Quảng Ninh
Tien Thang Hotel,hotel,20.7225943,107.0508544,Quảng Ninh
Điểm Biểu tượng ngắm Vịnh Cát Bà,monument,20.7255422,107.0519114,Quảng Ninh
Khách sạn Hoa Việt Anh,hotel,20.8426896,106.6698109,Quảng Ninh
Tang tien hotel,hotel,20.7220126,107.0511224,Quảng Ninh
Hang Thiên Cảnh Sơn,cave_entrance,20.8819256,107.1695662,Quảng Ninh
Ngoc Hoa Hotel,hotel,20.7252294,107.0488659,Quảng Ninh
Thay Cave,cave_entrance,20.8682301,107.2011143,Quảng Ninh
Núi Nàng Tiên,peak,20.9558905,107.5151839,Quảng Ninh
Núi Vạn Hoa,peak,21.1912037,107.5742507,Quảng Ninh
Khu 4 thi trấn cái rồng huyện van don tinh quảng ninh,castle,21.0681682,107.4217621,Quảng Ninh
Phu Thanh,hotel,20.7259468,107.0469462,Quảng Ninh
Huyen vu,hostel,20.7262865,107.0504507,Quảng Ninh
Floating Guesthouse,guest_house,20.7859841,107.0753933,Quảng Ninh
Catba Central Hotel,hotel,20.7244217,107.0518855,Quảng Ninh
Hong Minh hotel,hostel,20.7962616,106.8930334,Quảng Ninh
Ming Quan 2,hotel,20.8752728,107.4918327,Quảng Ninh
Moi vao,guest_house,21.5524914,107.0932794,Quảng Ninh
Chuyen trang,guest_house,20.9449139,107.5509172,Quảng Ninh
Vinh Lan Ha,bay,20.7515722,107.1042778,Quảng Ninh
Hạ long Khách sạn Vẻ đẹp tiềm ẩn,hotel,20.9358279,106.9941233,Quảng Ninh
Núi Yên Tử,peak,21.1607827,106.7149285,Quảng Ninh
Phu Vinh,hotel,20.8537997,106.68298,Quảng Ninh
Koc moc,hotel,20.9544264,107.0970821,Quảng Ninh
Nha nghi Hong Loc/300k room,hotel,21.0797872,107.3458305,Quảng Ninh
Viet Anh,hotel,20.7249115,107.0496463,Quảng Ninh
Thác sông Mooc,attraction,21.5542494,107.5708134,Quảng Ninh
Bãi lửa trại,attraction,20.9706176,107.7632393,Quảng Ninh
Khánh Huyền Motel,hotel,20.8365704,106.6726155,Quảng Ninh
Nhật Anh Hotel 2,hotel,20.7278897,107.0461664,Quảng Ninh
Central Backpackers Hostel,hostel,20.7400756,107.0419466,Quảng Ninh
Cat Ba Central Hostel Backpacker,hostel,20.7225512,107.0508745,Quảng Ninh
Cat Ba Green House,hotel,20.7245907,107.0524978,Quảng Ninh
"Catba Love Hotel, add 261 Nui Ngoc tr, Cat Ba",hotel,20.7245697,107.0522917,Quảng Ninh
Cát Bà Eco Lodge,hotel,20.7720931,106.9843567,Quảng Ninh
Hang Tiên Ông,attraction,20.8158341,107.1223542,Quảng Ninh
Hông Quàng Hotel,hotel,20.7254062,107.0500799,Quảng Ninh
Cat Ba Central Homestay,guest_house,20.7319153,107.0493373,Quảng Ninh
Trang Anh hôtel,hotel,20.7259073,107.0469724,Quảng Ninh
Gray Line Cruise,hotel,20.923381,106.9819013,Quảng Ninh
Woodstock Beachcamp,camp_site,20.7502335,106.9978676,Quảng Ninh
Nui da chong mountain - Rocky Husband,viewpoint,21.0410084,106.8730806,Quảng Ninh
Mona's Homestay,hotel,20.7258019,107.0471172,Quảng Ninh
Second canon,memorial,20.7226939,107.0547474,Quảng Ninh
Third canon,memorial,20.7220587,107.0548848,Quảng Ninh
First canon,memorial,20.7230163,107.0549735,Quảng Ninh
nhà kiên,apartment,20.8493529,106.678401,Quảng Ninh
hòn gà chọi,museum,20.8974878,107.0317965,Quảng Ninh
Khách sạn Hà Gia,hotel,20.9397383,107.1225796,Quảng Ninh
Nhà nghỉ Hà Gia,motel,20.9418032,107.1170147,Quảng Ninh
Xuan Dam beach,attraction,20.7498451,106.9980803,Quảng Ninh
Cau Dinh Vu - Cat Hai,attraction,20.8066726,106.8283051,Quảng Ninh
Kho Dan,attraction,20.7232915,107.0537048,Quảng Ninh
Tran Dia Phao,attraction,20.7230969,107.0537445,Quảng Ninh
Khu Trung Bay Dan,attraction,20.7234737,107.0545967,Quảng Ninh
Floating Fishing Village,attraction,20.7380987,107.0609761,Quảng Ninh
Banana and Rose Homestay,guest_house,20.9322076,106.994876,Quảng Ninh
Bảo tàng Quảng Ninh,museum,20.9486771,107.0975562,Quảng Ninh
Full Moon Party Bus,yes,20.7239562,107.0500915,Quảng Ninh
An Tam;Smile Hotel,hotel,20.7245417,107.0511892,Quảng Ninh
Catba Island Hotel,hotel,20.7247752,107.0524071,Quảng Ninh
thuy Anh,hotel,20.7259684,107.0504607,Quảng Ninh
Liên cơ 4,apartment,20.9417946,107.1173398,Quảng Ninh
Trung tâm tổ chức hội nghị tỉnh,apartment,20.9438746,107.1241345,Quảng Ninh
Hanh Trinh Di San,guest_house,20.7698539,107.0688392,Quảng Ninh
Thu Hoai Hotel,hotel,20.7253597,107.0507893,Quảng Ninh
Thu Hoai,hotel,20.7263864,107.0508584,Quảng Ninh
Cannon fort Cat Ba Hostel (the good one),apartment,20.7245794,107.0525602,Quảng Ninh
Hidden path - bring good shoes,information,20.7259373,107.055161,Quảng Ninh
Church,monument,20.7289904,107.0531484,Quảng Ninh
Hoi Lake Farmestay,guest_house,20.796452,106.9942927,Quảng Ninh
Ubytovani cat ba,hotel,20.7275559,107.0481796,Quảng Ninh
Huong Cang Hotel,hotel,20.7255021,107.0482726,Quảng Ninh
Haihuyen Hotel,hotel,21.0599899,107.4279662,Quảng Ninh
Thien Tan Hotel,hotel,20.9819824,107.02139,Quảng Ninh
cầu Tuần Châu,attraction,20.9474286,106.9851968,Quảng Ninh
Cat Ba Mystery Homestay,motel,20.7348486,107.044279,Quảng Ninh
Floating Village,attraction,20.8629371,106.9837706,Quảng Ninh
Khách sạn Hữu Nghị,hotel,21.5223177,107.9654518,Quảng Ninh
Mũi Ngọc,cape,21.4341774,107.9667009,Quảng Ninh
Snow White’s Homestay,hotel,20.7312181,107.0498362,Quảng Ninh
1363(1),boundary_stone,21.5899711,107.9241122,Quảng Ninh
1363(2),boundary_stone,21.5885086,107.9237231,Quảng Ninh
犁壁滩,attraction,21.5858753,107.9247737,Quảng Ninh
1364(1),boundary_stone,21.5858217,107.9244094,Quảng Ninh
1364(2),boundary_stone,21.5857317,107.9222922,Quảng Ninh
1365(1),boundary_stone,21.5693394,107.9441178,Quảng Ninh
1365(2),boundary_stone,21.5689058,107.9421981,Quảng Ninh
1366(1),boundary_stone,21.5548408,107.9472864,Quảng Ninh
1366(2),boundary_stone,21.5534681,107.9455611,Quảng Ninh
1367(1),boundary_stone,21.5374475,107.9560219,Quảng Ninh
1367(2),boundary_stone,21.5359944,107.9548833,Quảng Ninh
1368(1),boundary_stone,21.5366025,107.9661397,Quảng Ninh
1368(2),boundary_stone,21.5353536,107.9669019,Quảng Ninh
1368(3),boundary_stone,21.5353583,107.9647503,Quảng Ninh
1369(1),boundary_stone,21.5376439,107.9681494,Quảng Ninh
1369(2),boundary_stone,21.5369322,107.9689928,Quảng Ninh
1370(1),boundary_stone,21.5443597,107.9793833,Quảng Ninh
1370(2),boundary_stone,21.5452014,107.9789319,Quảng Ninh
1370(3),boundary_stone,21.5454194,107.9794653,Quảng Ninh
Lilai International Hotel,hotel,21.5295169,107.9644837,Quảng Ninh
Núi Đỏ,peak,21.4488372,107.9693976,Quảng Ninh
Phuong Thao,hotel,20.7260189,107.0510347,Quảng Ninh
Paris,hotel,20.9512683,107.1017358,Quảng Ninh
May Hostel,hostel,20.7286726,107.0485729,Quảng Ninh
Cat Ba Island,viewpoint,20.7221491,107.0543571,Quảng Ninh
Chè Cô Hương,attraction,20.8451022,106.7001517,Quảng Ninh
Thu Ha Hotel,hotel,20.7256001,107.0480046,Quảng Ninh
Dolphin Backpackers,hostel,20.7320321,107.0583144,Quảng Ninh
Sea Pearl Hotel & Spa,hotel,20.7249956,107.0493283,Quảng Ninh
Black Pearl Cat Ba Hostel & travel agency,hostel,20.7267883,107.052594,Quảng Ninh
Luna's House hotel & restaurat,hotel,20.7249538,107.0532384,Quảng Ninh
View on the bay,viewpoint,20.7242532,107.0573318,Quảng Ninh
hai phong woody garden hostel,hostel,20.8211818,106.6832183,Quảng Ninh
Hoang phuc,hotel,20.7267281,107.0509634,Quảng Ninh
Phuong Phuong Hotel,hotel,20.7230574,107.0505747,Quảng Ninh
Catba Oasis Bungalows Hostel,hostel,20.7210635,107.0514007,Quảng Ninh
Family Friendy Hotel,hotel,20.7265553,107.0512179,Quảng Ninh
Hưng đạo Đại vương Trần Quốc Tuấn,monument,20.9633357,106.7660514,Quảng Ninh
Đức Vương Ngô Quyền,monument,20.9633019,106.7659642,Quảng Ninh
Hoàng đế Lê Đại Hành,monument,20.963268,106.7658542,Quảng Ninh
Di tích Bạch Đằng Giang,battlefield,20.9631653,106.766042,Quảng Ninh
Monkey Island Summit,viewpoint,20.7299682,107.078406,Quảng Ninh
Phong Nghi,guest_house,20.7259062,107.0499496,Quảng Ninh
Hòn Cặp Ré,peak,20.9485006,107.0941177,Quảng Ninh
Bella Hotel,hotel,20.9496395,107.0967999,Quảng Ninh
Cầu Koi,viewpoint,20.9558791,107.0727478,Quảng Ninh
Đài tưởng niệm Liệt sĩ Hạ Long,monument,20.9530085,107.0915616,Quảng Ninh
Tượng đài đồng chí Vũ Văn Hiếu,memorial,20.9522596,107.0905919,Quảng Ninh
Cho Ga,attraction,20.8554771,106.6848835,Quảng Ninh
The Ireland Hotel,hotel,20.7258536,107.050583,Quảng Ninh
Dark passage cave,viewpoint,20.8034627,107.0987192,Quảng Ninh
Royal Ha Long,hotel,20.9509646,107.0359084,Quảng Ninh
Khách sạn Vân Long,hotel,21.0090515,107.2605608,Quảng Ninh
Draco Thang Long Hotel,hotel,20.8643676,106.6811114,Quảng Ninh
Linh Sơn,peak,20.9993385,107.3124468,Quảng Ninh
Hòn Một,peak,20.9976608,107.3153892,Quảng Ninh
Vinpearl,hotel,20.8630098,106.6615154,Quảng Ninh
Korea Town,attraction,20.838363,106.7003154,Quảng Ninh
May Hostel,hostel,20.8591626,106.6841578,Quảng Ninh
Old Mosque,attraction,20.8563437,106.6845939,Quảng Ninh
Vietnam Airlines,yes,20.8569721,106.6813137,Quảng Ninh
History On Spratley Islands,information,20.8573568,106.6835269,Quảng Ninh
Cung văn hoá thiếu nhi,attraction,20.8457407,106.692055,Quảng Ninh
Captain Jack's Hostel,hostel,20.7396128,107.0415941,Quảng Ninh
Khau Phao So 2,attraction,20.723526,107.0546241,Quảng Ninh
Golden Land Hotel,hotel,20.7244192,107.0532218,Quảng Ninh
Galaxy Hotel,hotel,20.7260788,107.0514714,Quảng Ninh
Động trung trang,cave_entrance,20.7887703,106.9974369,Quảng Ninh
Mai Ve Motel,hotel,20.8274319,106.7300491,Quảng Ninh
Binh ha,hotel,21.532829,107.9598615,Quảng Ninh
Dỉnh Kim Giao,viewpoint,20.7946882,106.9974301,Quảng Ninh
Thái Duong Hotel,hotel,20.7243572,107.0510057,Quảng Ninh
Hoa,motel,21.5320429,107.9676504,Quảng Ninh
Nhà Nghỉ Linh Thủy,hotel,20.6910044,106.795987,Quảng Ninh
Cat Ba backpackers hostel,hostel,20.726719,107.0466908,Quảng Ninh
Chỗ làm việc,artwork,20.7951162,106.7223878,Quảng Ninh
du lịch,artwork,20.9613321,107.0481197,Quảng Ninh
NHÀ,guest_house,20.9411531,107.5473016,Quảng Ninh
Bar view point,viewpoint,20.7382521,107.0328889,Quảng Ninh
Paradise Trend Hotel,hotel,20.9199611,106.9891211,Quảng Ninh
Phuong Dong Oriental Motel,motel,20.9190318,106.9891168,Quảng Ninh
Paradise Comfort Hotel,hotel,20.9191513,106.9891214,Quảng Ninh
Queen Motel,motel,20.919315,106.9891266,Quảng Ninh
deja vu house,guest_house,20.9474409,107.0737307,Quảng Ninh
Côtô Ecolodge,guest_house,20.9977867,107.7707867,Quảng Ninh
Paradise Suites,hotel,20.9204482,106.9891303,Quảng Ninh
Cat Bi,hotel,20.8584292,106.6867298,Quảng Ninh
HÒN DẤU RESORT,hotel,20.6797787,106.8038633,Quảng Ninh
Viet 4 Seasons,hotel,20.8337136,106.6977096,Quảng Ninh
Núi Hang Lương,peak,20.992394,106.6785896,Quảng Ninh
Lea House,guest_house,20.9476547,107.0739344,Quảng Ninh
Local culture museum - Nhà văn hoá địa phương,museum,21.3467755,106.9584034,Quảng Ninh
Cường Thịnh - Homestay,guest_house,20.9890531,107.7536031,Quảng Ninh
Woodstock Jungle,guest_house,20.7837405,106.9775614,Quảng Ninh
Lotus Homestay,hotel,20.7990893,107.0424571,Quảng Ninh
Gold Mark,hotel,20.9688472,107.0195441,Quảng Ninh
Trung Trang Grotto,information,20.7894527,106.9979939,Quảng Ninh
Morning Star Hotel,hotel,20.9315798,106.9935022,Quảng Ninh
lim non,museum,21.3366929,106.9495499,Quảng Ninh
Cat Ba Journey,information,20.7248091,107.049498,Quảng Ninh
Orange Paradise,hostel,20.7770422,106.9846376,Quảng Ninh
Hùng vùòng,hotel,20.9525465,107.0803343,Quảng Ninh
Muse home,hotel,20.8654287,107.4925667,Quảng Ninh
Hai Phong Backpacker Hostel,hostel,20.8642132,106.6866635,Quảng Ninh
Kiara's Home,guest_house,20.8345659,106.7263236,Quảng Ninh
công viên Kim Đồng,,20.8463134,106.6937359,Quảng Ninh
vườn hoa An Biên,,20.8457244,106.6952701,Quảng Ninh
Bơm,spring,20.6538086,106.7935747,Quảng Ninh
Bãi Đá Đen,beach,21.4370451,107.9777164,Quảng Ninh
1299,boundary_stone,21.6137822,107.3598915,Quảng Ninh
Bài thơ Hotel,hotel,20.9472591,107.0334949,Quảng Ninh
Trung tâm quảng bá du lịch,information,21.5358625,107.9702049,Quảng Ninh
Đài liệt sĩ,memorial,21.5282377,107.9623541,Quảng Ninh
Núi Dực Vọng,peak,21.5256178,107.9673538,Quảng Ninh
鸳鸯潭,attraction,21.5863442,107.9252511,Quảng Ninh
Hồng Minh,apartment,20.8811523,106.6213801,Quảng Ninh
PHOENIX,hotel,20.9429684,107.546777,Quảng Ninh
Phật hoàng Trần Nhân Tông,memorial,21.157479,106.7165632,Quảng Ninh
九龙潭漂流景区,attraction,21.6265281,107.6993449,Quảng Ninh
An Kỳ Sinh,memorial,21.1570388,106.7169964,Quảng Ninh
Tượng Phật A Di Đà,memorial,21.0699891,106.7639458,Quảng Ninh
Bảo Tàng Chùa Ba Vàng,museum,21.068814,106.7637809,Quảng Ninh
Tượng Quan Âm,memorial,21.0671032,106.7644836,Quảng Ninh
Hòn Dê,peak,21.0847462,107.4535999,Quảng Ninh
Cocoon Inn Cat Ba,hostel,20.7243103,107.0519643,Quảng Ninh
Central Luxury Hotel,hotel,20.9592905,106.9965477,Quảng Ninh
Yoko onsen,hot_spring,20.9823395,107.2027324,Quảng Ninh
Tuyến 7,apartment,21.1613546,106.7953482,Quảng Ninh
Domik Homestay,guest_house,20.729752,107.0417974,Quảng Ninh
G. X. Ti Tốp,artwork,20.8590207,107.0809085,Quảng Ninh
Binh Huong Peak,peak,21.0756909,106.7804209,Quảng Ninh
Làng đàn nông cụ Hưng Học,attraction,20.913862,106.7961765,Quảng Ninh
đình Kiền Bái,artwork,20.9230056,106.6356069,Quảng Ninh
Blue Lagoon Cat Ba,hotel,20.7419103,107.042385,Quảng Ninh
Hòn Đỉnh Hương,attraction,20.9004906,107.0159614,Quảng Ninh
MINALO Hotel,hotel,20.9570226,107.0485979,Quảng Ninh
Cột khói Nhà máy Xi măng,ruins,20.8673187,106.667559,Quảng Ninh
Đình Khúc Trì,memorial,20.8102479,106.6209148,Quảng Ninh
Cát Bà Swan Hotel,hotel,20.7284983,107.0448,Quảng Ninh
Chu Long,hotel,20.7277476,107.0462387,Quảng Ninh
khu Vuc,attraction,20.7759065,107.0782577,Quảng Ninh
Khách sạn Hanvet,hostel,20.6996655,106.7875761,Quảng Ninh
Khách sạn Bưu Điện,hostel,20.6959846,106.7929566,Quảng Ninh
Biệt thự Hoa Lan,hostel,20.6786255,106.8050319,Quảng Ninh
Khách Sạn Vạn Phong,hostel,20.6808639,106.8011454,Quảng Ninh
Nhà Nghỉ Hương Giang,hotel,20.7111139,106.7908376,Quảng Ninh
Nhà Nghỉ Ngọc Linh,hotel,20.7121827,106.791653,Quảng Ninh
Nhà khách Hải Quân,hotel,20.6977109,106.791645,Quảng Ninh
Khách sạn Biển Nhớ,hotel,20.6898372,106.7953075,Quảng Ninh
Nhà nghỉ Song Khôi,hotel,20.690211,106.7949374,Quảng Ninh
Nhà Nghỉ Hải Hà,hotel,20.6903854,106.795612,Quảng Ninh
Nhà Nghỉ 54 Hải Dương,hotel,20.6903541,106.7955168,Quảng Ninh
Nhà Nghỉ ĐỨC CƯỜNG,hotel,20.6890204,106.7938565,Quảng Ninh
Nhà Nghỉ Hòa Bình,hotel,20.6890606,106.7944492,Quảng Ninh
Nhà nghỉ Hồng Hà,hotel,20.6890882,106.7945833,Quảng Ninh
Khách Sạn Nguyệt Thu,hotel,20.6847258,106.7936634,Quảng Ninh
Nhà Nghỉ Hoai Phuong,guest_house,20.6846242,106.7942534,Quảng Ninh
Nhà Nghỉ Hải Như,hotel,20.6845138,106.7939014,Quảng Ninh
Nhà Nghỉ Chi Mai,hotel,20.6845752,106.793825,Quảng Ninh
Nhà Nghỉ Cây Dừa 2,hotel,20.6846003,106.7953598,Quảng Ninh
Hoa Phuong Hotel,hotel,20.6844448,106.795502,Quảng Ninh
Nhà Nghỉ Hoàng Phát,hotel,20.6837685,106.7952485,Quảng Ninh
Nhà Nghỉ Quang Huy,hotel,20.6828124,106.7956133,Quảng Ninh
Nhà Nghỉ Minh Anh,hotel,20.6819128,106.7961323,Quảng Ninh
Nhà nghỉ Làng Tôi,hotel,20.6817108,106.7968914,Quảng Ninh
Nhà Nghỉ Bảo Long,hotel,20.681687,106.7969879,Quảng Ninh
Nhà Nghỉ Thịnh Phát,hotel,20.6817623,106.7974238,Quảng Ninh
Nhà Nghỉ Hoàng Trang,hotel,20.6816631,106.7971033,Quảng Ninh
Nhà Nghỉ Vạn Lợi,hotel,20.6817322,106.7968203,Quảng Ninh
Nhà Nghỉ Lan Anh,hotel,20.6818137,106.7964944,Quảng Ninh
Nhà Nghỉ Mây Ngàn,hotel,20.6819517,106.79643,Quảng Ninh
Nhà Nghỉ Phúc Lâm,hotel,20.6819931,106.7962517,Quảng Ninh
Nhà Nghỉ An Giang,hotel,20.6821889,106.7960934,Quảng Ninh
Nhà Nghỉ Hoài Anh,hotel,20.6823269,106.7959781,Quảng Ninh
Nhà Nghỉ Thành Phúc,hotel,20.6824674,106.7959325,Quảng Ninh
Nhà Nghỉ Diệu Hoa,hotel,20.682367,106.7956938,Quảng Ninh
Nhà Nghỉ Vạn Hương,hotel,20.6827259,106.7955878,Quảng Ninh
Nhà Nghỉ Nam Chính,hotel,20.6826393,106.7957649,Quảng Ninh
Nhà Nghỉ Thanh Bình,hotel,20.6825791,106.7954618,Quảng Ninh
Nhà Nghỉ Thanh Hùng,hotel,20.6829178,106.7954645,Quảng Ninh
Khách Sạn Xây Dựng,hotel,20.6837145,106.7950729,Quảng Ninh
Nhà Nghỉ Đồ Sơn Star,hotel,20.68452,106.7943701,Quảng Ninh
Nhà nghỉ Hoàng Gia 1,hotel,20.6841838,106.7941247,Quảng Ninh
Hoang Lam Hotel,hotel,20.6842515,106.7940804,Quảng Ninh
Nhà Nghỉ Hoa Cúc,hotel,20.6844247,106.7939503,Quảng Ninh
NHÀ NGHỈ HƯNG THỊNH,guest_house,20.7837208,106.722495,Quảng Ninh
Imperial Boat,hotel,20.861817,106.6854376,Quảng Ninh
Trần Quốc Toản,artwork,21.0286567,107.3701676,Quảng Ninh
Cat Ba Spring Garden Homestay,hotel,20.7526454,106.9938004,Quảng Ninh
Nhà Nghỉ Đài Trang,hostel,20.6843814,106.7940361,Quảng Ninh
Nhà Nghỉ Anh Tuấn,motel,20.6841494,106.7942451,Quảng Ninh
Nhà Nghỉ Vĩnh Liên,motel,20.6841737,106.7946632,Quảng Ninh
Nhà Nghỉ Ánh Quang,motel,20.7116854,106.796437,Quảng Ninh
Nhà Nghỉ Tuấn Long,motel,20.7116072,106.7964136,Quảng Ninh
Nhà Nghỉ Phúc Thái Lợi,motel,20.7113293,106.7963002,Quảng Ninh
Nhà Nghỉ Giang Bình,motel,20.7115233,106.7963773,Quảng Ninh
Nhà Nghỉ Thanh Lịch,motel,20.711416,106.7963386,Quảng Ninh
1337(1),boundary_stone,21.6109824,107.6616617,Quảng Ninh
Catba Papillon Garden Bungalows & Resort,hotel,20.7587494,107.0101139,Quảng Ninh
Núi Sơn Đào,peak,20.9317421,106.6651959,Quảng Ninh
Núi Đồ Sơn,peak,20.7049595,106.7858755,Quảng Ninh
Khách sạn Quỳnh Trang,hotel,20.8656351,106.6951342,Quảng Ninh
Khách sạn Ngọc Lan,hotel,20.8647292,106.6952658,Quảng Ninh
Khách sạn COZI,hotel,20.8646416,106.695274,Quảng Ninh
Núi Khau O,peak,21.4786143,107.0055646,Quảng Ninh
Núi Ngọc Xuyên,peak,20.7066543,106.7796797,Quảng Ninh
Núi Cựu Viên,peak,20.8142172,106.6396321,Quảng Ninh
Núi Cột Cờ,peak,20.7947792,106.6137636,Quảng Ninh
Cat Ba,artwork,20.7216657,107.0505858,Quảng Ninh
Ship,artwork,20.7220605,107.050602,Quảng Ninh
Pearl Hotel,hotel,20.9232924,106.9822487,Quảng Ninh
Charmhill Hotel,hotel,20.9180687,106.9866072,Quảng Ninh
An Villa,hotel,20.9651054,107.0546774,Quảng Ninh
Tiny house Cat Ba,guest_house,20.7292352,107.0527803,Quảng Ninh
Prosperity,hotel,20.9563045,107.0537776,Quảng Ninh
Jayden,hotel,20.9562715,107.0542037,Quảng Ninh
Pasan,hotel,20.9566124,107.0559993,Quảng Ninh
Wyndham Garden,hotel,20.9566836,107.0563926,Quảng Ninh
Vincent,hotel,20.956609,107.0561224,Quảng Ninh
Soleil Wyndham,hotel,20.9566216,107.0510064,Quảng Ninh
Napoli Hostel,hostel,20.7265765,107.0524444,Quảng Ninh
Abandoned building,camp_site,20.9903679,107.2283938,Quảng Ninh
Wyndham Garden Sonasea Vân Đồn,hotel,21.1042914,107.4821772,Quảng Ninh
The paddy Catba,hotel,20.724333,107.0518865,Quảng Ninh
Cat Ba Glow Hotel,hotel,20.7244401,107.0532871,Quảng Ninh
Núi Đối,peak,20.753686,106.6659754,Quảng Ninh
Catba Buffalo Hostel,hostel,20.7436665,107.0293827,Quảng Ninh
Núi Ba Phủ,peak,21.0031622,106.6025895,Quảng Ninh
Trang toàn hotel,hotel,20.7264871,107.0512727,Quảng Ninh
Núi Hàm Long,peak,20.9175917,106.6775488,Quảng Ninh
Núi Thần Vì,peak,20.9728083,106.7200224,Quảng Ninh
Núi Sa Gạc,peak,20.9659909,106.7219258,Quảng Ninh
Núi Phượng Hoàng,peak,20.9570837,106.7334369,Quảng Ninh
Núi Hoàng Tôn,peak,20.9574892,106.7460913,Quảng Ninh
Núi Hương,peak,20.9467279,106.702584,Quảng Ninh
Núi Hàm Rồng,peak,20.942559,106.7387254,Quảng Ninh
Núi Chùa Khuông Lư,peak,20.9447624,106.7126191,Quảng Ninh
Núi Ngà Voi,peak,20.9791804,106.6941336,Quảng Ninh
Núi Hang Ốc,peak,20.9755831,106.7087489,Quảng Ninh
Núi Dẹo Cao,peak,20.9624367,106.7148848,Quảng Ninh
Núi Trẹo,peak,21.0091761,106.6387576,Quảng Ninh
Núi Thành Dền,peak,21.0090659,106.6305733,Quảng Ninh
Núi Ngã Ba,peak,20.9951295,106.6343871,Quảng Ninh
Núi Mã Chàng,peak,20.9833252,106.6636611,Quảng Ninh
Núi Giếng Suối,peak,20.9871941,106.6519837,Quảng Ninh
Núi Giếng Suối,peak,20.9933922,106.6438649,Quảng Ninh
Núi Niệm Nội,peak,21.0097443,106.6072251,Quảng Ninh
Núi Cháy,peak,20.9961682,106.6160013,Quảng Ninh
Núi Đình,peak,20.9506018,106.6674532,Quảng Ninh
Núi Hà Phú,peak,20.9515008,106.6847519,Quảng Ninh
Núi Mã,peak,20.9775167,106.7528799,Quảng Ninh
Núi Sơn Đào,peak,20.9679895,106.6203224,Quảng Ninh
Núi Núi Đồn,peak,20.9775092,106.6238434,Quảng Ninh
Núi Giếng Trê,peak,20.9632049,106.6264186,Quảng Ninh
Núi Dưỡng Chính,peak,20.9745087,106.6295319,Quảng Ninh
Núi Niệm Nội,peak,20.9854328,106.6165638,Quảng Ninh
Núi Đá Vách,peak,20.9846445,106.6051365,Quảng Ninh
Chala De Villa,hotel,20.9452969,107.0290404,Quảng Ninh
Attraction,attraction,20.7419239,107.0502652,Quảng Ninh
Tommy Hotel,hotel,20.7247413,107.0529822,Quảng Ninh
Corner Catba,hotel,20.7414102,107.0422335,Quảng Ninh
Phuc An,hostel,20.726029,107.0504174,Quảng Ninh
Núi Mỡ Lợn,peak,21.2374474,107.9666811,Quảng Ninh
Núi Vạn Mặc,peak,21.2845486,107.6743735,Quảng Ninh
Vụng Bàn Cờ,bay,21.2887151,107.6877068,Quảng Ninh
Nguyễn Đức DC,hotel,20.9443349,106.7351461,Quảng Ninh
Anh Quan,hotel,20.73016,107.0564401,Quảng Ninh
island you can swim to,attraction,20.713582,107.0513255,Quảng Ninh
Camping,camp_site,20.9960845,107.2878131,Quảng Ninh
Beach,camp_site,20.995962,107.2773722,Quảng Ninh
High long mountain,attraction,20.9988608,107.2450666,Quảng Ninh
High long mountain,attraction,21.000345,107.2480449,Quảng Ninh
Khách sạn SAKURA,hotel,21.5294646,107.9734605,Quảng Ninh
Catba Fantasea & Queen,hotel,20.7247644,107.051616,Quảng Ninh
Khách Sạn Sinh Viên,hotel,20.8345764,106.6908677,Quảng Ninh
Khách Sạn Công Đoàn,hotel,20.8472195,106.6810753,Quảng Ninh
Bảo tàng Hải quân,museum,20.8260807,106.7004611,Quảng Ninh
Khách Sạn hải Phòng,hotel,20.8421243,106.7018092,Quảng Ninh
Avani Harbour View Hotel,hotel,20.8639629,106.6896216,Quảng Ninh
Rex Hotel,hotel,20.8338279,106.6783317,Quảng Ninh
Khách Sạn Hoàng Gia,hotel,20.8339196,106.6976447,Quảng Ninh
Khách sạn Phương Đông,hotel,20.866531,106.7001423,Quảng Ninh
Hai Phòng Star Hotel,hotel,20.8299562,106.6973349,Quảng Ninh
Bình Dương,hotel,20.8344354,106.6994966,Quảng Ninh
Hotel Rose massage,hotel,20.8335843,106.6958449,Quảng Ninh
Thai Massage,hotel,20.8302259,106.6965652,Quảng Ninh
Hotel New 2,hotel,20.8333652,106.6772563,Quảng Ninh
Vạn lộc,hotel,20.8292685,106.6902763,Quảng Ninh
The Shine Hotel,hotel,20.8495885,106.704481,Quảng Ninh
Trung tâm Hotel,hotel,20.845666,106.7145276,Quảng Ninh
Milano Hotel,hotel,20.8527868,106.7245547,Quảng Ninh
Valentino Hotel,hotel,20.8523439,106.7235754,Quảng Ninh
Khách Sạn Dầu Khí,hotel,20.861923,106.7197168,Quảng Ninh
Cầu Bắc Luân - 北仑桥,attraction,21.5372827,107.9685908,Quảng Ninh
Cannon Fort,attraction,20.7234504,107.0537682,Quảng Ninh
Hòn Gà chọi,attraction,20.8904925,107.0262266,Quảng Ninh
Majestic Mong Cai,hotel,21.5338809,107.9719665,Quảng Ninh
Hidden beach,attraction,20.8169588,107.4701044,Quảng Ninh
Grand,hotel,21.5269373,107.9716428,Quảng Ninh
Mong Cai Palace Hotel,hotel,21.5266053,107.9722246,Quảng Ninh
Khách sạn Biển Bắc,hotel,21.5313057,107.9746691,Quảng Ninh
Đền Xã Tắc,attraction,21.5338043,107.9652811,Quảng Ninh
Central Hotel,hotel,21.5290838,107.9687213,Quảng Ninh
Khu vui chơi thiếu niên nhi đồng,theme_park,21.009541,107.2622278,Quảng Ninh
Hai Yen Luxury Hotel,hotel,21.0102258,107.2695536,Quảng Ninh
Flamingo,hotel,20.7201535,107.0553513,Quảng Ninh
Bảo tàng Chiến thắng Bạch Đằng,museum,20.9627326,106.7610235,Quảng Ninh
Khách sạn Bưu điện Hạ Long,hotel,20.956819,107.0502206,Quảng Ninh
Tháp Đồng Hồ,attraction,20.9516105,107.0851999,Quảng Ninh
Ha Long Palace,hotel,20.9555053,107.0209196,Quảng Ninh
Marina,hotel,20.9547667,107.0218464,Quảng Ninh
Crown Hotel,hotel,20.9545515,107.0221102,Quảng Ninh
Mường Thanh Grand Hạ Long,hotel,20.9542299,107.0224025,Quảng Ninh
Moon Hotel,hotel,20.9546025,107.0223305,Quảng Ninh
Galaxy Ha Long Hotel,hotel,20.9547441,107.0222825,Quảng Ninh
Au Lac Hotel,hotel,20.9548845,107.022235,Quảng Ninh
Khách sạn Hương Biển,hotel,20.9447395,107.1230503,Quảng Ninh
Novotel Ha Long,hotel,20.9519692,107.0419818,Quảng Ninh
Khách sạn Sài Gòn Hạ Long,hotel,20.9517699,107.0396397,Quảng Ninh
Nhạc nước,attraction,20.9500306,107.043202,Quảng Ninh
Hilton Hai Phong,hotel,20.860515,106.6845384,Quảng Ninh
Mercure Haiphong,hotel,20.8509319,106.6867111,Quảng Ninh
Legend Pearl,attraction,20.9573534,106.9513676,Quảng Ninh
Pullman Trần Phú,hotel,20.8595643,106.6884524,Quảng Ninh
Dolphinarium (closed?),attraction,20.9273103,106.9867109,Quảng Ninh
Tuan Chau Park,theme_park,20.9270222,106.9879808,Quảng Ninh
Legacy Yen Tu - MGallery,hotel,21.1374159,106.7245897,Quảng Ninh
Bảo tàng Xi măng Việt Nam,museum,20.8670169,106.6674211,Quảng Ninh
Luxury6 Móng Cái,hotel,21.5274617,107.9712423,Quảng Ninh
Công Đoàn Hotel,hotel,21.5292479,107.9692856,Quảng Ninh
Nam Phong,hotel,21.5267648,107.9718191,Quảng Ninh
Vạn Xuân,hotel,21.5247186,107.972113,Quảng Ninh
Tuyển Đạt,hotel,21.5262973,107.9734095,Quảng Ninh
Viet Nhat I,hotel,21.5266526,107.9729449,Quảng Ninh
phoenix hotel,hotel,20.9430356,107.5467153,Quảng Ninh
Bảo tàng Hải Phòng,museum,20.8619663,106.6827034,Quảng Ninh
Wyndham Dragon,hotel,20.6992877,106.7798538,Quảng Ninh
TAJ lake,attraction,20.799979,107.0016136,Quảng Ninh
Wink Hải Phòng,hotel,20.8614574,106.6803415,Quảng Ninh
Roygent Parks Hải Phòng,hotel,20.8244092,106.6905268,Quảng Ninh
Nikko Hải Phòng,hotel,20.8250824,106.6906062,Quảng Ninh
Kovie Hotel,hotel,20.8574111,106.6994701,Quảng Ninh
Sea Stars,hotel,20.8549717,106.7014966,Quảng Ninh
Hôtel Perle d'Orient,hotel,20.7151467,107.0487977,Quảng Ninh
Nhà khách UBND huyện Cô Tô,guest_house,20.9717937,107.7636177,Quảng Ninh
Melia Vinpearl Hotel Imperia,hotel,20.8669793,106.663752,Quảng Ninh
LePont Panorama Bungalows,hotel,20.7177257,107.0472945,Quảng Ninh
Bảo tàng Di tích ngoài trời,museum,20.9640079,106.7642755,Quảng Ninh
Phi Long Thần Tốc,attraction,20.95406,107.0479012,Quảng Ninh
Cát Bà Plaza,hotel,20.7323075,107.0579877,Quảng Ninh
Flamingo,hotel,20.7183994,107.0528684,Quảng Ninh
Wyndham Hotel,hotel,20.9595167,107.0603206,Quảng Ninh
Eco Farmstay Cai Beo,hotel,20.739676,107.0654076,Quảng Ninh
Lan Ha Floating Homestay,hotel,20.7392561,107.064476,Quảng Ninh
Làng Chài Cái Bèo (Homestay & Restaurant),hotel,20.7410263,107.0617716,Quảng Ninh
Rose Nhung Hotel,hotel,20.7243829,107.0529569,Quảng Ninh
New Horizon Hotel,hotel,20.7249179,107.0528425,Quảng Ninh
品尚瑾酒店,hotel,21.5467589,107.9704038,Quảng Ninh
Sunworld,theme_park,20.9518994,107.0483086,Quảng Ninh
The Yacht,hotel,20.9507272,107.0330164,Quảng Ninh
Khách sạn Mường Thanh Luxury Quảng Ninh,hotel,20.9565159,107.0491579,Quảng Ninh
KDL Bãi Cháy,yes,20.9511931,107.0439638,Quảng Ninh
