name,kind,lat,lon,province/city
Động Phong Nha,cave,17.5813674,106.2830788,Quảng Bình
Hang Sơn Đoòng,cave,17.456944,106.2875,Quảng Bình
Động Thiên Đường,cave,17.5192008,106.223045,Quảng Bình
Động Tiên Sơn,cave,17.5802528,106.282071,Quảng Bình
Hang 8 cô,attraction,17.5038683,106.2617412,Quảng Bình
Suoi Nuoc Mooc,monument,17.5553924,106.2357356,Quảng Bình
Hang Én Cave,attraction,17.441321,106.292725,Quảng Bình
Bia di tích chiến thắng Khe Gát,memorial,17.6605639,106.2574276,Quảng Bình
Bãi biển Nhật Lệ,beach,17.491054,106.627149,Quảng Bình